,idLV,SG_UF,CD_LOCALIDADE_TSE,NM_LOCALIDADE,NR_ZONA,NR_LOCVOT,NM_LOCVOT,DS_ENDERECO,DS_BAIRRO,NR_CEP,n_locs,street_name,street_number,locality,postal_code,sub_locality,provider,latitude,longitude,dispersion,clusters_count,providers_count,levenshtein_match_street_name
1,308721861015,BA,30872,"DIAS D'ÁVILA",186,1015,"ESCOLA MUNICIPAL CLAUDIONOR SIMÕES DO CARMO","RUA BETA, 44 - ZONA URBANA",ENTRONCAMENTO,42850000,9,"Rua Beta",44,"Dias d'Ávila",42850000,,here_geocoder,-12.5954576,-38.327933,69.469556008179,1,2,0.21621621621622
2,308721861031,BA,30872,"DIAS D'ÁVILA",186,1031,"CENTRO EDUCACIONAL NORMÉLIO MOURA DA COSTA","RUA JOAQUIM NABUCO SN - ZONA URBANA","GARCIA D'ÁVILA",42850000,12,"Rua Joaquim Nabuco",,"Dias d'Ávila",42850000,"Dias d'Ávila",here_geocoder,-12.60892,-38.29287,-1,2,1,0.36734693877551
3,308721861040,BA,30872,"DIAS D'ÁVILA",186,1040,"ESCOLA MUNICIPAL PROF. LUIZ SANDE","RUA CAMPO ALEGRE, 543 - ZONA URBANA","LESSA RIBEIRO",42850000,8,"Rua Campo Alegre",543,"Dias d'Ávila",42850000,"Dias d'Ávila",here_geocoder,-12.6087443,-38.3105791,48.37185725845,1,2,0.34782608695652
4,308721861066,BA,30872,"DIAS D'ÁVILA",186,1066,"COLÉGIO PADRE TORREND","RUA PROFESSOR FERNANDO LUZ, S/N - ZONA URBANA","CRISTO REI",42850000,12,"Rua Professor Fernando",,"Dias d'Ávila",42850000,"Dias d'Ávila",here_geocoder,-12.60397,-38.30503,896.07935852289,1,2,0.41509433962264
5,308721861090,BA,30872,"DIAS D'ÁVILA",186,1090,"ESCOLA MADRE DIAMANTINA","RUA SANTA ISABEL, S/N - ZONA URBANA",GENARO,42850000,15,"Rua Santa Isabel",,"Dias d'Ávila",42850000,"Dias d'Ávila",here_geocoder,-12.61679,-38.28927,3284.8824155508,1,2,0.41025641025641
6,308721861104,BA,30872,"DIAS D'ÁVILA",186,1104,"ESCOLA MUNICIPAL PROF. ANFRÍSIA SANTIAGO","RUA CAJAYBA 22 - ZONA URBANA","NOVA DIAS D'ÁVILA",42850000,8,"Rua Nova",22,"Dias d'Ávila",42850000,"Dias d'Ávila",here_geocoder,-12.6122571,-38.2908355,998.77366016086,2,2,0.17777777777778
7,308721861112,BA,30872,"DIAS D'ÁVILA",186,1112,"ESCOLA CRISTO REI","RUA DA SUÉCIA - ZONA URBANA","CRISTO REI",42850000,9,"Rua da Suécia",,"Dias d'Ávila",42850000,"Dias d'Ávila",here_geocoder,-12.60112,-38.30971,3942.4336320092,1,2,0.37837837837838
8,308721861139,BA,30872,"DIAS D'ÁVILA",186,1139,"COLÉGIO ESTADUAL PROFESSOR EDILSON SOUTO FREIRE","RUA DA  HOLANDA, S/N - ZONA URBANA",URBIS,42850000,12,"Rua da Holanda",,"Dias d'Ávila",42850000,"Dias d'Ávila",here_geocoder,-12.6177499,-38.29933,11.017122887816,1,2,0.38888888888889
9,308721861155,BA,30872,"DIAS D'ÁVILA",186,1155,"ESCOLA MUNICIPAL MARIA SANTIAGO BACELAR DE SANTANA","RUA PRIMEIRO DE JANEIRO, S/N - ZONA URBANA",CONCÓRDIA,42850000,10,"Rua Primeiro de Janeiro",,"Dias d'Ávila",42850000,,here_geocoder,-12.60435,-38.32592,21.541521673902,1,2,0.46
10,308721861163,BA,30872,"DIAS D'ÁVILA",186,1163,"ESCOLA PROFESSORA ALTAIR DA COSTA LIMA","RUA GETÚLIO VARGAS, S/N - ZONA URBANA",CENTRO,42850000,11,"Rua Getúlio Vargas",,"Dias d'Ávila",42850000,"Dias d'Ávila",here_geocoder,-12.61197,-38.30312,2342.5499882411,1,2,0.45238095238095
11,308721861171,BA,30872,"DIAS D'ÁVILA",186,1171,"ESPECIAL ESCOLA PROFESSORA ALTAIR DA COSTA LIMA","RUA GETÚLIO VARGAS, S/N - ZONA URBANA",CENTRO,42850000,1,"Rua Getúlio Vargas",,"Dias d'Ávila",42850000,"Dias d'Ávila",here_geocoder,-12.61197,-38.30312,2342.5499882411,1,2,0.45238095238095
12,308721861180,BA,30872,"DIAS D'ÁVILA",186,1180,"ESCOLA MUNICIPAL NESTOR SILVA CARVALHO","RUA DA ASSEMBLÉIA - ZONA RURAL","DISTRITO DE LEANDRINHO",42850000,2
13,308721861198,BA,30872,"DIAS D'ÁVILA",186,1198,"ESCOLA MUNICIPAL EUTRÓDIA CARVALHO DOS SANTOS","RUA RUI BARBOSA, 10 - ZONA URBANA",URBIS,42850000,5,"Rua Rui Barbosa",10,"Dias d'Ávila",42850000,"Dias d'Ávila",here_geocoder,-12.6181004,-38.3030082,67.397279183755,1,2,0.41666666666667
14,308721861201,BA,30872,"DIAS D'ÁVILA",186,1201,"ESCOLA MUNICIPAL BIRIBEIRA","DISTRITO DE BIRIBEIRA - ZONA RURAL","DISTRITO DE BIRIBEIRA",42850000,1
15,308721861210,BA,30872,"DIAS D'ÁVILA",186,1210,"ESCOLA MUNICIPAL FLORÊNCIO BORGES DE SANTANA","RUA SANTA TEREZINHA, SN (RUA DA ÁGUA MINERAL DIAS D ÁVILA",IMBASSAY,42850000,4,"Rua Santa Terezinha",,"Dias d'Ávila",42850000,"Dias d'Ávila",here_geocoder,-12.61299,-38.31441,18.637886111178,1,2,0.27536231884058
16,308721861228,BA,30872,"DIAS D'ÁVILA",186,1228,"ESCOLA MUNICIPAL SANTA TITARA","RUA CATHARINA PARAGUASSU, S/N - ZONA URBANA","JARDIM ALVORADA",42850000,2,"Segunda Tv. Catarina Paraguassu",,"Dias d'Ávila",42850000,"Dias d'Ávila",here_geocoder,-12.61959,-38.29296,3083.3852614607,1,2,0.25
17,308721861236,BA,30872,"DIAS D'ÁVILA",186,1236,"ESCOLA MUNICIPAL DO BOSQUE","RUA ARCHIMEDES, S/N - ZONA URBANA","BOSQUE DIAS D'ÁVILA",42850000,3,"Rua Arquimedes & Rua do Bosque",,"Dias d'Ávila",42850000,,arcgis_online,-12.6216,-38.2838715,-1,1,1,0.45098039215686
18,308721861244,BA,30872,"DIAS D'ÁVILA",186,1244,"ESCOLA MUNICIPAL BOA VISTA DE SANTA HELENA","DISTRITO DE SANTA HELENA - ZONA RURAL","DISTRITO DE SANTA HELENA",42850000,1,"Rua Santa Helena",,"Dias d'Ávila",42850000,,arcgis_online,-12.600300547921,-38.322495494347,-1,1,1,0.26666666666667
19,308721861252,BA,30872,"DIAS D'ÁVILA",186,1252,"ESCOLA  MUNICIPAL FUTURAMA","DISTRITO DE JARDIM FUTURAMA - ZONA RURAL","DISTRITO DE JARDIM FUTURAMA",42850000,1,"Travessa Jardim de Souza",,"Dias d'Ávila",42850000,,arcgis_online,-12.6043065,-38.30219325,-1,1,1,0.22727272727273
20,308721861260,BA,30872,"DIAS D'ÁVILA",186,1260,"ESCOLA MUNICIPAL SÃO JOSÉ","RUA PRINCIPAL - ZONA RURAL","DISTRITO DE EMBOACICA",42850000,1
21,341341701023,BA,34134,CAMAÇARI,170,1023,"ESCOLA MUNICIPAL JOSE ALAN","RUA ABARE, S/N - ZONA URBANA","GLEBA C",42800000,9,"Rua Abaré",,Camaçari,42809051,Camaçari,here_geocoder,-12.70925,-38.3295699,-1,2,1,0.24242424242424
22,341341701031,BA,34134,CAMAÇARI,170,1031,"ESCOLA DO NATAL","RUA DO NATAL, N 124 - ZONA URBANA",BOMBA,42809070,11,"Rua do Natal",124,Camaçari,42809070,Camaçari,here_geocoder,-12.6967428,-38.320259,908.81562947012,1,3,0.33333333333333
23,341341701040,BA,34134,CAMAÇARI,170,1040,"COLEGIO ESTADUAL POLIVALENTE DE CAMACARI","RUA SANTA BERNADETE, N 16 - ZONA URBANA",CENTRO,42800030,6,"Rua Santa Bernadete",16,Camaçari,42800030,Camaçari,here_geocoder,-12.6988957,-38.3255126,815.36597343859,1,3,0.44186046511628
24,341341701058,BA,34134,CAMAÇARI,170,1058,"COLEGIO SAO THOMAZ DE CANTUARIA","RUA PONCIANO DE OLIVEIRA, N 27 - ZONA URBANA",CENTRO,42800100,15,"Rua Ponciano de Oliveira",27,Camaçari,42800100,Camaçari,here_geocoder,-12.6946044,-38.3181965,2555.9609673388,1,3,0.5
25,341341701074,BA,34134,CAMAÇARI,170,1074,"ESCOLA DOUTOR LUIZ ROGERIO","RUA ABARE, S/N - ZONA URBANA","GLEBA C",42805530,16,"Rua Abaré",,Camaçari,42809051,Camaçari,here_geocoder,-12.70925,-38.3295699,1764.3499732521,1,2,0.24242424242424
26,341341701082,BA,34134,CAMAÇARI,170,1082,"COLEGIO MARIA QUITERIA","RUA DO PONTO CERTO, S/N - ZONA URBANA","PONTO CERTO",42800000,17,"Rua Ponto Certo",,Camaçari,42801090,Camaçari,here_geocoder,-12.7102299,-38.31764,8.3822040884898,3,2,0.32608695652174
27,341341701090,BA,34134,CAMAÇARI,170,1090,"ESCOLA COSME DE FARIAS","RUA BEGONEAS, S/N - ZONA URBANA","PHOC I",42800000,16,"Rua das Begonhas",,Camaçari,42820000,"Monte Gordo",here_geocoder,-12.59605,-38.03682,529.25908280621,2,2,0.28571428571429
28,341341701104,BA,34134,CAMAÇARI,170,1104,"CENTRO DE EDUCACAO MUNICIPAL DE CAMACARI","RUA ARACY, S/N - ZONA URBANA","PHOC II",42805300,17,"Rua Araci",,Camaçari,42805,"Phoc II",google_maps,-12.7092591,-38.3326558,746.16138837867,2,2,0.27272727272727
29,341341701112,BA,34134,CAMAÇARI,170,1112,"ESCOLA LUIZ EDUARDO MAGALHAES","RUA LUIZ EDUARDO MAGALHAES, S/N -ZONA URBANA",CENTRO,42800420,15,"Rua Luiz Eduardo Magalhães",,Camaçari,42809051,Camaçari,here_geocoder,-12.70787,-38.29766,2240.3442782578,3,2,0.48979591836735
30,341341701120,BA,34134,CAMAÇARI,170,1120,"ESCOLA MUNICIPAL SONIA REGINA","RUA DA FLEXA S/N - ZONA URBANA","PHOC III",42804660,7,"Rua da Flecha",,Camaçari,42805,"Tancredo Neves",google_maps,-12.7194026,-38.335432,-1,1,1,0.2972972972973
31,341341701139,BA,34134,CAMAÇARI,170,1139,CAIC,"AV OESTE S/N - ZONA URBANA","PHOC I",42805002,6,"Avenida Oeste",,Camaçari,42805002,Camaçari,here_geocoder,-12.7064299,-38.32934,11.968685153656,4,2,0.36111111111111
32,341341701147,BA,34134,CAMAÇARI,170,1147,"ESCOLA ANISIO TEIXEIRA","CAMINHO 55 S/N - ZONA URBANA","GLEBA E",42804550,12,"Avenida Industrial Urbana",55,Camaçari,42802570,Camaçari,here_geocoder,-12.72013,-38.31125,-1,2,1,0.26470588235294
33,341341701155,BA,34134,CAMAÇARI,170,1155,"ESCOLA MARIA JOSE DE MATOS DA CONCEICAO","RUA ALTO DA BOA VISTA, N 44 - ZONA URBANA","GLEBA B",42800000,4,"Rua da Boa Vista",44,Camaçari,42805370,Camaçari,here_geocoder,-12.7124815,-38.3334296,71.507193826094,3,2,0.34782608695652
34,341341701163,BA,34134,CAMAÇARI,170,1163,"ESCOLA ANGIOLINA TEIXEIRA DE SOUZA","RUA EIXO E, 119 - ZONA URBANA",PIACAVEIRA,42802490,10,"Via Piaçareira",,Camaçari,42802,,arcgis_online,-12.709425287187,-38.3227515,843.84749585471,2,1,0.27027027027027
35,341341701171,BA,34134,CAMAÇARI,170,1171,"ESCOLA PADRE PAULO TANNUCCI","RUA PRACA DO COMERCIO, S/N - ZONA URBANA","NOVO HORIZONTE",42800000,11,"Praça do Comécio",s/n,Camaçari,42800005,"Novo Horizonte",google_maps,-12.6974407,-38.3090617,-1,5,1,0.25
36,341341701180,BA,34134,CAMAÇARI,170,1180,"ESCOLA LUIZ PEREIRA COSTA","TRAVESSA NOSSA SENHORA DO CARMO S/N - ZONA URBANA","DOIS DE JULHO",42802010,10,"Travessa Nossa Senhora do Carmo",2,Camaçari,42802010,Camaçari,here_geocoder,-12.7173503,-38.3323653,-1,2,1,0.50819672131148
37,341341701198,BA,34134,CAMAÇARI,170,1198,"ESCOLA MUNICIPAL SANTO ANTONIO DO MACHADINHO","FAZENDA MACHADINHO S/N - ZONA RURAL",MACHADINHO,42800000,5
38,341341701201,BA,34134,CAMAÇARI,170,1201,"CRECHE MUNICIPAL DA GLEBA C","RUA ABARE S/N - ZONA URBANA","GLEBA C",42800000,6,"Rua Abaré",,Camaçari,42809051,Camaçari,here_geocoder,-12.70925,-38.3295699,-1,2,1,0.24242424242424
39,341341701210,BA,34134,CAMAÇARI,170,1210,"ESPECIAL COLEGIO ESTADUAL POLIVALENTE DE CAMACARI","RUA SANTA BERNADETE, N 16 - ZONA URBANA",CENTRO,42800030,1,"Rua Santa Bernadete",16,Camaçari,42800030,Camaçari,here_geocoder,-12.6988957,-38.3255126,815.36597343859,1,3,0.44186046511628
40,341341701236,BA,34134,CAMAÇARI,170,1236,"COLÉGIO VIRGÍNIA REIS TUDE","RUA PETROLINA, S/N - ZONA URBANA","VERDES HORIZONTES",42800000,3,"Rua Petrolina",,Camaçari,42802,"Verdes Horizontes",google_maps,-12.7200341,-38.3191957,436.85297910495,2,3,0.27659574468085
41,341341701244,BA,34134,CAMAÇARI,170,1244,"COLÉGIO MUNICIPAL HILDEBRANDO LIMA FILHO","AV. RUI BARBOSA, SN","PARQUE DAS MANGABAS",42800000,1,"Avenida Rui Barbosa",,Camaçari,42809051,Camaçari,here_geocoder,-12.73258,-38.29651,16.404678064227,2,2,0.26315789473684
42,341341701252,BA,34134,CAMAÇARI,170,1252,"ESCOLA ILAY GARCIA ELLERY","RUA PRAÇA DO COMÉRCIO, S/N - ZONA URBANA","NOVO HORIZONTE",42800000,1,"Praça do Comécio",s/n,Camaçari,42800005,"Novo Horizonte",google_maps,-12.6974407,-38.3090617,-1,5,1,0.25
43,341341701260,BA,34134,CAMAÇARI,170,1260,"ESCOLA NORMAL","RUA PONCIANO DE OLIVEIRA, S/N - ZONA URBANA",CENTRO,42800000,1,"Rua Ponciano de Oliveira",,Camaçari,,Centro,google_maps,-12.6967911,-38.3182008,1546.9598884925,2,3,0.51063829787234
44,341341701279,BA,34134,CAMAÇARI,170,1279,"CENTRO EDUCACIONAL YOLANDA PIRES","RUA PRINCIPAL, S/N - ZONA URBANA","JARDIM LIMOEIRO",42800000,1,"Rua Lateral de Dentro",S/N,Camaçari,42801,"Jardim Limoeiro",google_maps,-12.706071,-38.3058366,-1,2,1,0.28888888888889
45,341341711023,BA,34134,CAMAÇARI,171,1023,"CENTRO EDUCACIONAL MARQUÊS DE ABRANTES","ESTRADA DE BURIS S/N - ZONA RURAL","POVOADO VILA DE ABRANTES",42800000,17,"Travessa Buris",,Camaçari,42840000,Abrantes,here_geocoder,-12.8277699,-38.26095,-1,1,1,0.21428571428571
46,341341711058,BA,34134,CAMAÇARI,171,1058,"ESCOLA MUNICIPAL TOMAZ DE CAMILO","RUA DA MANGUEIRA S/N - ZONA RURAL","POVOADO AREIAS",42800000,5,"Rua da Mangueira",,Camaçari,42820000,"Monte Gordo",here_geocoder,-12.59426,-38.0444699,-1,4,1,0.34782608695652
47,341341711066,BA,34134,CAMAÇARI,171,1066,"COLÉGIO MUNICIPAL PROFESSORA LÍDIA COELHO PINTO","RUA GUILHERME MACHADO S/N - ZONA RURAL","POVOADO AREMBEPE",42800000,11,"Rua Guilherme Machado",,Camaçari,42840000,Abrantes,here_geocoder,-12.77005,-38.17602,-1,1,1,0.39622641509434
48,341341711104,BA,34134,CAMAÇARI,171,1104,"ESCOLA MUNICIPAL BARRA DE JACUÍPE","RUA DAS FLORES S/N - ZONA RURAL","POVOADO BARRA DE JACUÍPE",42833000,7,"Rua das Flores",,Camaçari,42805300,Camaçari,here_geocoder,-12.72312,-38.33119,-1,3,1,0.25454545454545
49,341341711120,BA,34134,CAMAÇARI,171,1120,"CENTRO EDUCACIONAL BARRA DO POJUCA","RUA ELISIO NETO S/N - ZONA RURAL","POVOADO BARRA DO POJUCA",42825000,14,"Rua Elisio Neto",,Camaçari,42820000,"Monte Gordo",here_geocoder,-12.58901,-38.05172,729.43633218568,1,2,0.27777777777778
50,341341711155,BA,34134,CAMAÇARI,171,1155,"COLÉGIO ESTADUAL DE MONTE GORDO","RUA DO JACARÉ, S/N - ZONA URBANA","POVOADO MONTE GORDO",42800000,7,"Rua do Jacaré Dois",,Camaçari,42820000,"Monte Gordo",here_geocoder,-12.6496,-38.09347,-1,2,1,0.34
51,341341711171,BA,34134,CAMAÇARI,171,1171,"ESCOLA MUNICIPAL MACLINA MARIA DA GLÓRIA","RUA DIRETA DO PHOC DE ABRANTES S/N - ZONA RURAL",CENTRO,42800000,7,"Rua Direta",,Camaçari,42840000,Abrantes,here_geocoder,-12.83443,-38.29042,9.8596554586242,2,2,0.19230769230769
52,341341711180,BA,34134,CAMAÇARI,171,1180,"ESCOLA MUNICIPAL FÉLIX JOAQUIM DE MORAES","RUA DO CANARIO S/N - ZONA URBANA","CAMAÇARI DE DENTRO",42800000,9,"Rua Canário",,Camaçari,42807030,Camaçari,here_geocoder,-12.69887,-38.33464,15.97158711275,1,2,0.22
53,341341711198,BA,34134,CAMAÇARI,171,1198,"ESCOLA GONCALO MUNIZ","RUA DA ESCOLA CONVENIO 377 - ZONA URBANA","CAMAÇARI DE DENTRO",42800000,8,"Rua da Escola Convênio",377,Camaçari,42806120,Camaçari,here_geocoder,-12.70408,-38.33262,1762.5638155149,1,3,0.36206896551724
54,341341711201,BA,34134,CAMAÇARI,171,1201,"CENTRO EDUCACIONAL MONTEIRO LOBATO","RUA SAO BENTO S/N - ZONA URBANA",CENTRO,42800000,12,"Rua São Bento",,Camaçari,42806085,Camaçari,here_geocoder,-12.70461,-38.33168,325.70717839543,1,3,0.33333333333333
55,341341711210,BA,34134,CAMAÇARI,171,1210,"ESCOLA MUNICIPAL CATU DE ABRANTES","LOTEAMENTO CURVA DO RIO S/N - ZONA URBANA","POVOADO CATU DE ABRANTES",42800000,6,"Rua Catu de Abrantes",,Camaçari,42840000,Abrantes,here_geocoder,-12.85939,-38.28769,-1,1,1,0.3125
56,341341711279,BA,34134,CAMAÇARI,171,1279,"ESCOLA SÃO SALVADOR","RUA COQUEIRO DE MONTE GORDO - ZONA RURAL","POVOADO MONTE GORDO",42827000,2
57,341341711287,BA,34134,CAMAÇARI,171,1287,"ESCOLA MUNICIPAL PROFESSORA LAURITA SOUZA RIBEIRO","AVENIDA RADIAL A 178 - ZONA URBANA",DERBA,42800005,8,"Avenida Radial A",178,Camaçari,42807000,Camaçari,here_geocoder,-12.6970594,-38.3340519,1124.3075587564,5,2,0.42105263157895
58,341341711295,BA,34134,CAMAÇARI,171,1295,"ESCOLA ESTADUAL JOSÉ DE FREITAS MASCARENHAS","AVENIDA DO CANAL S/N - ZONA URBANA","GLEBA A",42800000,17,"Avenida do Canal",,Camaçari,,"Gleba A",google_maps,-12.6924149,-38.3353413,-1,3,1,0.4
59,341341711309,BA,34134,CAMAÇARI,171,1309,"CENTRO EDUCACIONAL REITOR EDGAR SANTOS","RUA JOAO ARAUJO S/N - ZONA URBANA","GLEBA A",42707290,4,"Rua João Araújo",,Camaçari,42807,"Gleba A",google_maps,-12.6927383,-38.3360097,39.045472658839,2,3,0.28205128205128
60,341341711317,BA,34134,CAMAÇARI,171,1317,"ESCOLA MUNICIPAL DENISE TAVARES","RUA RADIAL C S/N - ZONA URBANA","GLEBA B",42809580,15,"Avenida Radial C",,Camaçari,42808010,Camaçari,here_geocoder,-12.69207,-38.32661,-1,3,1,0.22222222222222
61,341341711333,BA,34134,CAMAÇARI,171,1333,"CENTRO SOCIAL DE TRABALHO E CIDADANIA (CSTC)","AVENIDA DO CANAL S/N - ZONA URBANA",GRAVATÁ,42800000,8,"Avenida do Canal",,Camaçari,,Gravatá,google_maps,-12.6872521,-38.3341049,3678.3644358549,1,3,0.39024390243902
62,341341711341,BA,34134,CAMAÇARI,171,1341,"ESCOLA MUNICIPAL HELENA CELESTINO MAGALHÃES","AVENIDA DO CANAL S/N - ZONA URBANA",GRAVATÁ,42800000,19,"Avenida do Canal",,Camaçari,,Gravatá,google_maps,-12.6872521,-38.3341049,3678.3644358549,1,3,0.39024390243902
63,341341711384,BA,34134,CAMAÇARI,171,1384,"CENTRO EDUCACIONAL TANCREDO NEVES","ESTRADA DE JAUA S/N - ZONA RURAL",CENTRO,42800000,8,"Rua do Centro",,Camaçari,42820000,"Monte Gordo",here_geocoder,-12.62032,-38.05731,-1,1,1,0.32432432432432
64,341341711392,BA,34134,CAMAÇARI,171,1392,"ESCOLA MUNICIPAL CONCEIÇÃO DE MARIA","LARGO DOIS DE JULHO S/N - ZONA RURAL","POVOADO PARAFUSO",42849990,7
65,341341711430,BA,34134,CAMAÇARI,171,1430,"ESCOLA MUNICIPAL ALOISIO DE OLIVEIRA","FAZENDA DO SACO SN - ZONA RURAL","POVOADO MONTE GORDO",42820000,2,"Rua do Saco",,Camaçari,42820000,"Monte Gordo",here_geocoder,-12.67038,-38.12547,-1,2,1,0.18367346938776
66,341341711449,BA,34134,CAMAÇARI,171,1449,"ESCOLA MUNICIPAL AMÉLIA RODRIGUES","RUA SAO BENTO S/N - ZONA RURAL","POVOADO MONTE GORDO",42801000,11,"Rua São Bento",,Camaçari,,,google_maps,-12.7049757,-38.3316702,-1,1,1,0.22916666666667
67,341341711465,BA,34134,CAMAÇARI,171,1465,"ESCOLA ESTADUAL ENGENHEIRO RUI BACELAR","AVENIDA GETULIO VARGAS, 249 - ZONA URBANA","ALTO DO TRIÂNGULO",42800002,8,"Avenida Getúlio Vargas",249,Camaçari,42800005,Camaçari,here_geocoder,-12.7007049,-38.3246863,88.84874744353,1,2,0.35087719298246
68,341341711473,BA,34134,CAMAÇARI,171,1473,"ESCOLA MUNICIPAL EUSTÁQUIO ALVES SANTANA","RUA ALTO DA BELA VISTA S/N - ZONA RURAL","POVOADO PARAFUSO",42800000,3,"Rua Alto da Bela Vista",,Camaçari,,"Bela Vista",google_maps,-12.7113961,-38.3212848,1211.1633830556,2,3,0.40740740740741
69,341341711481,BA,34134,CAMAÇARI,171,1481,"ESCOLA NEUZA MENEZES BARRETO","AVENIDA RADIAL C S/N - ZONA URBANA","PARQUE SATÉLITE",42800000,6,"Avenida Radial C",,Camaçari,42808010,Camaçari,here_geocoder,-12.69207,-38.32661,56.591117559151,2,2,0.3265306122449
70,341341711490,BA,34134,CAMAÇARI,171,1490,"COLÉGIO ESTADUAL DE VILAS DE ABRANTES","AVENIDA TIRADENTES, S/N - ZONA RURAL","POVOADO VILA DE ABRANTES",42800000,10,"Avenida Tiradentes",,Camaçari,42840000,Abrantes,here_geocoder,-12.82922,-38.26183,-1,2,1,0.31034482758621
71,341341711503,BA,34134,CAMAÇARI,171,1503,"ESCOLA MUNICIPAL GILTÔNIA PEREIRA DE SOUZA","RUA PARATI S/N - ZONA RURAL","POVOADO AREMBEPE",42835000,7,"Rua Parati",,Camaçari,42840000,Abrantes,here_geocoder,-12.76274,-38.17957,911.70463730414,1,3,0.23809523809524
72,341341711511,BA,34134,CAMAÇARI,171,1511,"ESCOLA SANTO ANTÔNIO DO JORDÃO","RUA SANTO ANTONIO S/N - ZONA RURAL","POVOADO JORDÃO",42800000,1,"Rua Santo Antônio",,Camaçari,42840000,Abrantes,here_geocoder,-12.83674,-38.26958,-1,2,1,0.3125
73,341341711520,BA,34134,CAMAÇARI,171,1520,"ESCOLA MUNICIPAL RURAL BOA UNIÃO","CONDOMINIO COLONIA BOA UNIAO - ZONA RURAL","POVOADO CATU DE ABRANTES",42800000,1,"Rua Colônia Boa União",,Camaçari,42840000,Abrantes,here_geocoder,-12.84703,-38.28782,-1,1,1,0.234375
74,341341711538,BA,34134,CAMAÇARI,171,1538,"ESPECIAL CENTRO EDUCACIONAL MARQUÊS DE ABRANTES","ESTRADA DE BURIS S/N - ZONA RURAL","POVOADO VILA DE ABRANTES",42800000,1,"Travessa Buris",,Camaçari,42840000,Abrantes,here_geocoder,-12.8277699,-38.26095,-1,1,1,0.21428571428571
75,341341711546,BA,34134,CAMAÇARI,171,1546,"ESCOLA MUNICIPAL ALBERTO FERREIRA BRANDÃO","RUA FLOR DO CAMPO, S/N - ZONA URBANA","GLEBA H",42800000,3,"Rua Flor Lotus",110,Camaçari,42800000,"Gleba H",google_maps,-12.7073296,-38.3231594,-1,2,1,0.26829268292683
76,341341711554,BA,34134,CAMAÇARI,171,1554,"ESCOLINHA MARCO IVO BONA","CONDOMINIO BUSCA VIDA, LT 27 - ZONA RURAL","POVOADO CATU DE ABRANTES",42840000,1,"Primeira Travessa Busca Vida",51,Camaçari,42840000,Abrantes,here_geocoder,-12.85463,-38.27552,-1,1,1,0.19047619047619
77,341341711562,BA,34134,CAMAÇARI,171,1562,"ESCOLA MUNICIPAL JOANA ANGELICA","AVENIDA RADIAL B - ZONA URBANA",MANGUEIRAL,42800000,1,"Avenida Radial B",,Camaçari,,Mangueiral,google_maps,-12.6861636,-38.3321418,-1,3,1,0.41025641025641
78,341341711589,BA,34134,CAMAÇARI,171,1589,"INTERNAÇÃO - CASE - IRMÃ DULCE","RODOVIA BA 512, KM 12, FAZENDA SÃO JOÃO, SN - ZONA URBANA","SANTO ANTÔNIO",42800000,1,"Rua Parque Santo Antônio",512,Camaçari,42809051,Camaçari,here_geocoder,-12.6833137,-38.3549655,-1,2,1,0.29411764705882
79,342901271015,BA,34290,CANDEIAS,127,1015,"ESCOLA MUNICIPAL MARGARIDA SOUZA","PRACA TIRADENTES, N 12 - ZONA URBANA  ",CENTRO,43805220,5,"Rua Tiradentes 12",12,Candeias,37280000,,arcgis_online,-20.775703964775,-45.269435057969,-1,1,1,0.4
80,342901271031,BA,34290,CANDEIAS,127,1031,"IDEAL ESPORTE CLUBE","RUA ALFREDO SERRA, N 56 - ZONA URBANA  ",CENTRO,43800000,4
81,342901271040,BA,34290,CANDEIAS,127,1040,"ESCOLA MUNICIPALIZADA ADRIANO GORDILHO","RUA CAMURUGIPE, S/N - ZONA URBANA",TRIANGULO,43815380,5
82,342901271058,BA,34290,CANDEIAS,127,1058,"CASA DOS ROMEIROS","RUA PIO XI - MATRIZ NOSSA SENHORA DAS CANDEIAS - ZONA URBANA",CENTRO,43800000,6
83,342901271074,BA,34290,CANDEIAS,127,1074,"CASA DA CULTURA","RUA 13 DE MAIO, N 31 - ZONA URBANA",CENTRO,43800000,4
84,342901271090,BA,34290,CANDEIAS,127,1090,"ESCOLA ESTADUAL LUIZ VIANA FILHO","RUA DESEMBARGADOR TEIXEIRA DE FREITAS, N 10 - ZONA URBANA",PITANGA,43810271,4
85,342901271104,BA,34290,CANDEIAS,127,1104,"S E S I","PRACA DR. GUALBERTO D. FONTES, N 274 - ZONA URBANA",CENTRO,43800010,8
86,342901271112,BA,34290,CANDEIAS,127,1112,"ESCOLA MUNICIPAL ALZIRA FERREIRA","RUA ARACAJU - ZONA URBANA","SANTO ANTONIO",43800000,6
87,342901271120,BA,34290,CANDEIAS,127,1120,"ESCOLA ESTADUAL OURO NEGRO","RUA DOS MISSIONÁRIOS, S/N - ZONA URBANA",CENTRO,43800000,7
88,342901271147,BA,34290,CANDEIAS,127,1147,"ESCOLA MUNICIPAL ANTONIO CARLOS MAGALHAES","PCA MILTON BULCAO  LEMOS - ZONA URBANA",MALEMBA,43800000,4
89,342901271155,BA,34290,CANDEIAS,127,1155,"ESCOLA ESTADUAL NOSSA SENHORA DAS GRACAS","RUA PRESIDENTE KENNEDY, S/N - ZONA URBANA ",CENTRO,43805000,3
90,342901271171,BA,34290,CANDEIAS,127,1171,"CRECHE MUNICIPAL ANTONIA MAGALHAES","RUA DUQUE DE CAXIAS, N 21 - ZONA URBANA","SANTO ANTONIO",43800000,4,"Rua Duque de Caxias 21",21,Candeias,37280000,,arcgis_online,-20.764839533742,-45.27438473838,-1,1,1,0.44
91,342901271180,BA,34290,CANDEIAS,127,1180,"COMPLEXO ESCOLAR ESTADUAL POLIVALENTE","RUA JOSE XAVIER, S/N - ZONA URBANA",MALEMBA,43805580,12
92,342901271198,BA,34290,CANDEIAS,127,1198,"ESCOLA MUNICIPAL SAO JOAO BATISTA","RUA D, S/N  -  ZONA URBANA","NOVA BRASILIA",43800000,3
93,342901271201,BA,34290,CANDEIAS,127,1201,"ESCOLA MUNICIPAL JULIETA VIANA","RUA GETULIO VARGAS, S/N - ZONA URBANA",AREIA,43825141,14
94,342901271228,BA,34290,CANDEIAS,127,1228,"ESCOLA MUNICIPAL EDITH DIAS DOS SANTOS","RUA SANTA ISABEL, N 01 - ZONA URBANA  ",MALEMBA,43825290,3,"Rua Princesa Isabel 01",01,Candeias,37280000,,arcgis_online,-20.763498567947,-45.274167473327,-1,1,1,0.31707317073171
95,342901271236,BA,34290,CANDEIAS,127,1236,"ESCOLA MUNICIPAL LAURENTINO NOLASCO DA CRUZ","RUA TOME DE SOUZA - ZONA URBANA",SARANDY,43800000,7
96,342901271260,BA,34290,CANDEIAS,127,1260,"ESCOLA MUNICIPAL PAPA PAULO VI","RUA DESEMBARGADOR TEIXEIRA DE FREITAS, S/N - ZONA URBANA",PITANGA,43800000,4
97,342901271295,BA,34290,CANDEIAS,127,1295,"ESCOLA MUNICIPAL ALFREDO SILVA SERRA","RUA TEOTONIO VILELA, S/N - ZONA URBANA",MALEMBA,43805100,3
98,342901271309,BA,34290,CANDEIAS,127,1309,"ESCOLA MUNICIPAL SANTA CLARA","RUA SAO PAULO, S/N - ZONA URBANA",CENTRO,43805420,2
99,342901271325,BA,34290,CANDEIAS,127,1325,"COLEGIO MUNICIPAL IEDA BARRADAS CARNEIRO","RUA B, S/N  -   ZONA URBANA","URBIS I",43815000,10
100,342901271341,BA,34290,CANDEIAS,127,1341,"COLEGIO MUNICIPAL PROFESSOR DASIO JOSE DE SOUZA","RUA ITAJUBARA, S/N  - ZONA URBANA","SAO FRANCISCO",43815450,11
101,342901271350,BA,34290,CANDEIAS,127,1350,"ESCOLA MUNICIPAL ALBERTINA DIAS COELHO","RUA ROCA GRANDE, S/N - ZONA RURAL  ","DISTRITO PASSE",43800991,4
102,342901271368,BA,34290,CANDEIAS,127,1368,"ESCOLA MUNICIPAL CASTRO ALVES","RUA RIO DO CUNHA, S/N - ZONA RURAL","DISTRITO PASSE",43800991,3
103,342901271384,BA,34290,CANDEIAS,127,1384,"ESCOLA MUNICIPAL ANTÔNIO CRISTINO","RUA DA GAMBOA - ZONA RURAL","DISTRITO PASSE",43800000,1
104,342901271392,BA,34290,CANDEIAS,127,1392,"ESCOLA MUNICIPAL CONSELHEIRO LUIS VIANA","RUA 08 DE DEZEMBRO, S/N - ZONA RURAL","DISTRITO MENINO JESUS",43800000,4
105,342901271406,BA,34290,CANDEIAS,127,1406,"ESCOLA MUNICIPAL THYERES NOVAIS CERQUEIRA LIMA","RUA RUI BARBOSA, N 12 - ZONA RURAL","DISTRITO CABOTO",43800990,3
106,342901271414,BA,34290,CANDEIAS,127,1414,"ESCOLA MUNICIPAL UBALDO DE CARVALHO FERREIRA","KM 37, BR 324 - ZONA RURAL","DISTRITO BOCA DA MATA",43813300,2
107,342901271422,BA,34290,CANDEIAS,127,1422,"ESCOLA MUNIICIPAL ARGENTINA CASTELO BRANCO","NUCLEO RESIDENCIAL LANDULFO ALVES, BR 324, KM 40 - ZONA RURAL","DISTRITO COLONIA LANDULFO ALVES",43800000,1
108,342901271430,BA,34290,CANDEIAS,127,1430,"ESCOLA MUNICIPAL PADRE JOSE DE ANCHIETA","RUA DO REINO, N 68 - ZONA RURAL","DISTRITO MADEIRA",43800000,2
109,342901271449,BA,34290,CANDEIAS,127,1449,"ESCOLA MUNICIPAL TERCIA BORGES","JARDIM OURO NEGRO - ZONA URBANA","OURO NEGRO",43800000,3
110,342901271457,BA,34290,CANDEIAS,127,1457,"ESCOLA MUNICIPAL PADRE MANOEL DA NOBREGA","RUA DA ESCOLA, S/N - ZONA RURAL","DISTRITO PASSAGEM DOS TEIXEIRAs",43800994,3
111,342901271465,BA,34290,CANDEIAS,127,1465,"GINASIO MUNICIPAL IVONICE COSTA SOTERO","RUA DA ESCOLA, S/N - ZONA RURAL","DISTRITO PASSAGEM DOS TEIXEIRAs",43800000,3
112,342901271473,BA,34290,CANDEIAS,127,1473,"ESCOLA MUNICIPAL MILTON MATOS","DISTRITO CURUACU - ZONA RURAL","DISTRITO CURUACU",43800000,2
113,342901271481,BA,34290,CANDEIAS,127,1481,"ESCOLA MUNICIPAL 14 DE AGOSTO","RUA 14 DE AGOSTO, S/N - ZONA RURAL","DISTRITO CAROBA",43800000,6
114,342901271490,BA,34290,CANDEIAS,127,1490,"ESCOLA MUNICIPAL DR FRANCISCO GUALBERTO D. FONTES","KM 40, BR 324 - ZONA RURAL","DISTRITO CANTA GALO",43800000,2
115,342901271503,BA,34290,CANDEIAS,127,1503,"ESCOLA MUNICIPAL JUNQUEIRA FREIRE","AV. PINDOBA, S/N - ZONA RURAL","DISTRITO PINDOBA",43800000,1
116,342901271511,BA,34290,CANDEIAS,127,1511,"ESCOLA MUNICIPAL PROFESSOR BENITO SARNO","ESTRADA DO CEDRO, S/N - ZONA RURAL","POVOADO CEDRO",43800000,1
117,342901271538,BA,34290,CANDEIAS,127,1538,"ESPECIAL CASA DOS ROMEIROS","PRACA PIO XI - MATRIZ NOSSA SENHORA DAS CANDEIAS - ZONA URBANA",CENTRO,43810010,1
118,342901271554,BA,34290,CANDEIAS,127,1554,"COLÉGIO DA POLÍCIA MILITAR FRANCISCO PEDRO DE OLIVEIRA","RUA GUANABARA, S/N - ZONA URBANA",PITANGA,43810310,6
119,362341411015,BA,36234,ITAPARICA,141,1015,"COLÉGIO ESTADUAL JUTAHY MAGALHÃES","AV. JURACY MAGALHÃES, S/N - ZONA URBANA",CENTRO,44460000,6,"Avenida Juracy Magalhães",,Itaparica,44460000,Itaparica,here_geocoder,-12.88029,-38.68468,564.51800545576,2,3,0.36363636363636
120,362341411023,BA,36234,ITAPARICA,141,1023,"COLÉGIO ESTADUAL BENEDITO DE OLIVEIRA BARROS","AV. LOMANTO JÚNIOR, S/N - ZONA URBANA","ALTO DE SANTO ANTÔNIO",44460000,7,"Travessa Primeira do Alto de Santo Antonio",,Itaparica,44460000,Itaparica,here_geocoder,-12.88881,-38.67861,3343.1273901517,1,2,0.44827586206897
121,362341411058,BA,36234,ITAPARICA,141,1058,"BIBLIOTECA JURACY MAGALHÃES","RUA RUY BARBOSA, S/N - ZONA URBANA",CENTRO,44460000,1,"Rua Rui Barbosa",,Itaparica,44460000,,here_geocoder,-12.9300599,-38.66363,5.7034585030769,1,2,0.36842105263158
122,362341411066,BA,36234,ITAPARICA,141,1066,"ESCOLA PROFESSORA PEROLINA GONÇALVES DA CRUZ","AV. LOMANTO JÚNIOR, S/N - ZONA URBANA","ALTO DE SANTO ANTÔNIO",44460000,3,"Travessa Primeira do Alto de Santo Antonio",,Itaparica,44460000,Itaparica,here_geocoder,-12.88881,-38.67861,3343.1273901517,1,2,0.44827586206897
123,362341411074,BA,36234,ITAPARICA,141,1074,"COLÉGIO ENGENHEIRO CÉSAR REGO","RUA DO RIO, S/N - ZONA RURAL","DISTRITO DE PONTA DE AREIA",44460000,3,"Rua Ponta de Areia",,Itaparica,44460000,Itaparica,here_geocoder,-12.90695,-38.66456,2473.8127338243,4,2,0.34615384615385
124,362341411082,BA,36234,ITAPARICA,141,1082,"COLÔNIA DE PESCADORES DE AMOREIRAS (Z-12)","RUA DO DENDEZEIRO, S/Nº - ZONA RURAL","DISTRITO DE AMOREIRAS",44460000,1
125,362341411090,BA,36234,ITAPARICA,141,1090,"COLÉGIO DR. JOSÉ FERNANDO FIGUEIREDO","ESTRADA DA RODAGEM, S/N - LOT PARQUE DAS FONTES - RODOTEC - ZONA RURAL","DISTRITO DE AMOREIRAS",44460000,2
126,362341411112,BA,36234,ITAPARICA,141,1112,"ESCOLA ANTONIETA MARIA","RUA JOÃO MARTINS NONATO, S/N - ZONA RURAL","DISTRITO DE MANGUINHOS",44460000,1,"Rua João N Martins & Rua Manguinos",,Itaparica,44460000,,arcgis_online,-12.905208,-38.636298,983.51820784193,1,1,0.48387096774194
127,362341411120,BA,36234,ITAPARICA,141,1120,"ESCOLA MUNICIPAL PORTO DOS SANTOS","PRAÇA NOSSA SENHORA DO AMPARO, S/N - ZONA RURAL","DISTRITO DE PORTO DOS SANTOS",44460000,4
128,362341411139,BA,36234,ITAPARICA,141,1139,"ESCOLA ESTADUAL ENGENHEIRO MÁRIO LISBOA SAMPAIO","RUA GETÚLIO VARGAS, S/N - ZONA RURAL","DISTRITO DA MISERICÓRDIA",44460000,4,"Rua Getúlio Vargas & Rua Nova Misericórdia",,Itaparica,44460000,,arcgis_online,-12.928743,-38.6627175,1964.8325591743,1,2,0.68333333333333
129,362341411155,BA,36234,ITAPARICA,141,1155,"ESCOLA MUNICIPAL RAIMUNDO SACRAMENTO","CONJUNTO HABITACIONAL BOM DESPACHO, S/N - ZONA URBANA","BOM DESPACHO",44460000,4
130,362341411163,BA,36234,ITAPARICA,141,1163,"COLÉGIO DESEMBARGADOR ANTÔNIO OLIVEIRA MARTINS","ESTRADA DA RODAGEM, S/N - LOT PARQUE DAS FONTES - RODOTEC - ZONA RURAL","DISTRITO DE AMOREIRAS",44460000,2
131,362341411171,BA,36234,ITAPARICA,141,1171,"ESCOLA MUNICIPAL DE MANGUINHOS","RUA DA IGREJA, S/N - ZONA RURAL","DISTRITO DE MANGUINHOS",44460000,2,"Rua Manguinos",,Itaparica,44460000,,arcgis_online,-12.905082,-38.63626875,-1,1,1,0.25490196078431
132,362341411180,BA,36234,ITAPARICA,141,1180,"ESPECIAL COLÉGIO JUTAHY MAGALHÃES","AV. JURACY MAGALHÃES, S/N - ZONA URBANA",CENTRO,44460000,1,"Avenida Juracy Magalhães",,Itaparica,44460000,Itaparica,here_geocoder,-12.88029,-38.68468,564.51800545576,2,3,0.36363636363636
133,362341411198,BA,36234,ITAPARICA,141,1198,"ESCOLA MUNICIPAL MARIA AMÉLIA SANTOS","RUA DA RODAGEM, S/Nº - ZONA URBANA","LARGO DO SENHOR DO BONFIM",44460000,1,"Largo Senhor do Bonfim",,Itaparica,44460000,Itaparica,here_geocoder,-12.89489,-38.6743,6.0418557463217,1,2,0.37931034482759
134,362341411201,BA,36234,ITAPARICA,141,1201,"ESCOLA ESTADUAL JOÃO UBALDO RIBEIRO","LOTEAMENTO NOVA ITAPARICA, S/N - ZONA URBANA","ALTO DE SANTO ANTÔNIO",44460000,1,"Travessa Nova",,Itaparica,44460000,Itaparica,here_geocoder,-12.89489,-38.6773,-1,3,1,0.140625
135,362341411210,BA,36234,ITAPARICA,141,1210,"ESCOLA MUNICIPAL ANTÔNIO CARLOS MAGALHÃES","AV. ANTÔNIO CARLOS MAGALHÃES, S/Nº - ZONA URBANA","ALTO DAS POMBAS",44460000,3,"Avenida Antônio Carlos Magalhães",,Itaparica,44460000,Itaparica,here_geocoder,-12.89499,-38.67894,23.40913430453,1,2,0.390625
136,362341411228,BA,36234,ITAPARICA,141,1228,"ESCOLA MUNICIPAL JOSÉ VIANA SAMPAIO","ESTRADA DA RODAGEM, S/Nº - ZONA URBANA","BARRO BRANCO",44460000,1,"Rua Barra Branco",,Itaparica,44460000,Itaparica,here_geocoder,-12.90695,-38.66456,-1,1,1,0.30612244897959
137,362341411236,BA,36234,ITAPARICA,141,1236,"ESCOLA MUNICIPAL JUTAHY MAGALHÃES","RUA DA MANGUEIRA, S/N - ZONA URBANA","DISTRITO DE AMOREIRAS",44460000,3,"Rua da Mangueira",,Itaparica,44460000,Itaparica,here_geocoder,-12.90399,-38.6609,-1,3,1,0.2962962962963
138,368541801015,BA,36854,"LAURO DE FREITAS",180,1015,"COLÉGIO AMÉRICO SIMAS","AVENIDA MÁRIO EPINGAUS S/N - ZONA URBANA",CENTRO,42700000,12,"Avenida Brigadeiro Mário Epingaus",s/n,"Lauro de Freitas",42700000,Centro,google_maps,-12.8983159,-38.3228505,560.13076933679,2,3,0.32608695652174
139,368541801023,BA,36854,"LAURO DE FREITAS",180,1023,"COLÉGIO ESTADUAL BARTOLOMEU DE GUSMÃO","AVENIDA BRIGADEIRO MÁRIO EPINGAUS S/N - ZONA URBANA",CENTRO,42700000,21,"Avenida Brigadeiro Mário Epingaus",s/n,"Lauro de Freitas",42700000,Centro,google_maps,-12.8983159,-38.3228505,560.13076933679,2,3,0.59649122807018
140,368541801090,BA,36854,"LAURO DE FREITAS",180,1090,"ESCOLA FÉLIX CARDOSO DE ARAÚJO","RUA DIRETA DE SANTO ANTÔNIO, S/N - ZONA URBANA",PORTÃO,42700000,3,"Rua Direta Santo Antônio",s/n,"Lauro de Freitas",42700000,Portão,google_maps,-12.8621917,-38.2919239,1017.4278210328,3,2,0.48076923076923
141,368541801104,BA,36854,"LAURO DE FREITAS",180,1104,"COLÉGIO ESTADUAL KLEBER PACHECO","RUA DIRETA DE PORTÃO S/N - ZONA URBANA",PORTÃO,42700000,9,"Rua Vereador Watchins de Araújo",s/n,"Lauro de Freitas",42700000,"Pomar do Rio",google_maps,-12.8658308,-38.2999891,-1,1,1,0.35555555555556
142,368541801112,BA,36854,"LAURO DE FREITAS",180,1112,"ESCOLA MUNICIPAL CONSTANTINO VIEIRA","RUA DIRETA DE SANTO ANTÔNIO S/N - ZONA URBANA",PORTÃO,42700000,3,"Rua Direta Santo Antônio",s/n,"Lauro de Freitas",42700000,Portão,google_maps,-12.8621917,-38.2919239,1017.4278210328,3,2,0.48076923076923
143,368541801120,BA,36854,"LAURO DE FREITAS",180,1120,"ANEXO KLEBER PACHECO","AVENIDA SANTO ANTÔNIO S/N - ZONA URBANA",PORTÃO,42700000,5,"Avenida Santo Antônio",S/N,"Lauro de Freitas",42700000,,google_maps,-12.8695633,-38.3010942,258.19257722672,3,2,0.47826086956522
144,368541801147,BA,36854,"LAURO DE FREITAS",180,1147,"ESCOLA MUNICIPAL DR. PAULO MALAQUIAS","RUA NOVA BRASÍLIA, S/N - ZONA URBANA",PORTÃO,42700000,6,"Rua Nova República",,"Lauro de Freitas",42700000,"Jardim Portao",google_maps,-12.871729,-38.3048655,-1,4,1,0.30952380952381
145,368541801155,BA,36854,"LAURO DE FREITAS",180,1155,"COLÉGIO APOIO","AVENIDA PRAIA DE ITAPUÃ QUADRA 23 LOTE 44 - ZONA URBANA","VILAS DO ATLÂNTICO",42700000,20,"Avenida Praia de Itapuã",s/n,"Lauro de Freitas",42700000,"Vilas do Atlântico",google_maps,-12.8823736,-38.3034379,-1,3,1,0.32432432432432
146,368541801287,BA,36854,"LAURO DE FREITAS",180,1287,"ESCOLA MUNICIPAL ANA LÚCIA MAGALHÃES","AVENIDA BRIGADEIRO MÁRIO EPINGAUS S/N - ZONA URBANA",CENTRO,42700000,5,"Avenida Brigadeiro Mário Epingaus",s/n,"Lauro de Freitas",42700000,Centro,google_maps,-12.8983159,-38.3228505,560.13076933679,2,3,0.59649122807018
147,368541801414,BA,36854,"LAURO DE FREITAS",180,1414,"CENTRO EDUCACIONAL MUNICIPAL FÊNIX","RUA SÃO JORGE S/N - ZONA URBANA",CENTRO,42700000,10,"Rua São Jorge",,"Lauro de Freitas",42700000,Centro,google_maps,-12.8994148,-38.3239191,775.16475646737,1,3,0.30555555555556
148,368541801422,BA,36854,"LAURO DE FREITAS",180,1422,"COLÉGIO MUNICIPAL VILA PRAIANA","ALTO DA VILA PRAIANA S/N - ZONA URBANA",CENTRO,42700000,10,"Rua Alto da Vila Praiana",,"Lauro de Freitas",42700000,"Vila Praiana",here_geocoder,-12.89763,-38.31318,24.244087299771,2,2,0.37209302325581
149,368541801430,BA,36854,"LAURO DE FREITAS",180,1430,"UNIAO METROPOLITANA DE EDUCACAO E CULTURA - UNIME","AV LUIZ TARQUINIO PONTES, 600 - ZONA URBANA",CENTRO,42700000,24,"Avenida Luiz Tarquínio Pontes",600,"Lauro de Freitas",42700000,Centro,here_geocoder,-12.89017,-38.31548,908.42621138652,4,3,0.51923076923077
150,368541801449,BA,36854,"LAURO DE FREITAS",180,1449,"ESCOLA MUNICIPAL PEDRO PARANHOS","RUA QUEIRA DEUS S/N - ZONA URBANA",PORTÃO,42700000,10,"Rua Queira Deus",,"Lauro de Freitas",42700000,Portão,google_maps,-12.8644911,-38.3057408,1877.8598273249,2,3,0.38461538461538
151,368541801520,BA,36854,"LAURO DE FREITAS",180,1520,"SARTRE COC","RUA ANA C. B. DIAS, 259 - ZONA URBANA",MIRAGEM,42700000,5,"Rua Ana C. B. Dias",259,"Lauro de Freitas",42700000,"Loteamento Miragem",google_maps,-12.8809529,-38.2924282,1240.2030337049,2,2,0.42857142857143
152,368541801538,BA,36854,"LAURO DE FREITAS",180,1538,"COLÉGIO MENDEL","RUA PRAIA DO FORTE, S/N - ZONA URBANA","VILAS DO ATLÂNTICO",42700000,4,"Avenida Praia de Itapuã",s/n,"Lauro de Freitas",42700000,"Vilas do Atlântico",google_maps,-12.8823736,-38.3034379,-1,4,1,0.24074074074074
153,368541801546,BA,36854,"LAURO DE FREITAS",180,1546,"CEEP TIC-CENTRO EST DE EDUCAÇÃO PROF EM TEC, INFORMAÇÃO E COMUNICAÇÃO","RUA EUVALDO SANTOS LEITE, S/N - ZONA URBANA",CENTRO,42700000,3,"Rua Euvaldo Santos Leite",710,"Lauro de Freitas",42700000,Centro,google_maps,-12.899368,-38.325422,-1,4,1,0.51063829787234
154,368541801554,BA,36854,"LAURO DE FREITAS",180,1554,"ESCOLA MUNICIPAL GREGÓRIO PINTO DE ALMEIDA","AV. VITÓRIA DA CONQUISTA, S/N - ZONA URBANA","VILA PRAIANA",42700000,3,"Rua Vitória da Conquista",,"Lauro de Freitas",42700000,Ipitanga,here_geocoder,-12.89911,-38.30778,406.31995322196,1,3,0.40740740740741
155,368542041015,BA,36854,"LAURO DE FREITAS",204,1015,"ESCOLA MUNICIPAL CATARINA DE SENA","AV. DR. GERINO DE SOUZA FILHO, S/N - ZONA URBANA",CAJI,42700000,6,"Rua Doutor Gerino de Souza Filho",1,"Lauro de Freitas",42700000,Caji,google_maps,-12.8881318,-38.3251788,-1,3,1,0.42
156,368542041023,BA,36854,"LAURO DE FREITAS",204,1023,"ESCOLA MUNICIPAL SOLANGE COELHO","RUA NOSSA SENHORA APARECIDA - ZONA URBANA",ITINGA,42700000,13,"Rua Nossa Senhora Aparecida",,"Lauro de Freitas",42700000,Itinga,here_geocoder,-12.89506,-38.3436499,24.005769371952,2,2,0.58695652173913
157,368542041031,BA,36854,"LAURO DE FREITAS",204,1031,"INSTITUTO PROFISSIONALIZANTE EURIDES SANTANA","ESTRADA DA JAQUEIRA - ZONA URBANA",ITINGA,42700000,17,"Rua Recando da Jaqueira",,"Lauro de Freitas",42700000,Itinga,here_geocoder,-12.88215,-38.35061,1478.7573613985,1,3,0.28947368421053
158,368542041040,BA,36854,"LAURO DE FREITAS",204,1040,"ESCOLA MUNICIPAL DOIS DE JULHO","RUA SÃO CRISTÓVÃO, S/N - ZONA URBANA",ITINGA,42700000,16,"Avenida São Cristóvão",,"Lauro de Freitas",42700000,Itinga,here_geocoder,-12.89654,-38.3481,3164.1013373212,1,3,0.26190476190476
159,368542041058,BA,36854,"LAURO DE FREITAS",204,1058,"ESCOLA MUNICIPAL GOVERNADOR MÁRIO COVAS","LOTEAMENTO PARQUE SÃO PAULO - ZONA URBANA",ITINGA,42700000,10
160,368542041066,BA,36854,"LAURO DE FREITAS",204,1066,"ESCOLA MUNICIPAL QUINGOMA DE FORA","RUA SÃO JOSÉ, N 10 - ZONA URBANA",QUINGOMA,42700000,1,"Rua São José",10,"Lauro de Freitas",42700000,Jambeiro,here_geocoder,-12.8393819,-38.3301449,90.658724725102,4,2,0.28205128205128
161,368542041074,BA,36854,"LAURO DE FREITAS",204,1074,"COLÉGIO ESTADUAL ALFREDO AGOSTINHO DE DEUS","AVENIDA FORTALEZA S/N - ZONA URBANA",ITINGA,42700000,15,"Avenida Fortaleza",,"Lauro de Freitas",42700000,Itinga,google_maps,-12.8958194,-38.3405292,1826.1896826343,2,3,0.425
162,368542041082,BA,36854,"LAURO DE FREITAS",204,1082,"ESCOLA PROFESSOR FRANCISCO PEREIRA FRANCO","PARQUE SÃO PAULO S/N - ZONA URBANA",ITINGA,42700000,7
163,368542041090,BA,36854,"LAURO DE FREITAS",204,1090,"ESCOLA MUNICIPAL SENHORA VALENTINA SILVINA SANTOS","RUA SÃO CRISTÓVÃO, 48 - ZONA URBANA",ITINGA,42700000,5,"Avenida São Cristóvão",48,"Lauro de Freitas",42700000,Itinga,here_geocoder,-12.8967115,-38.3480738,1367.5163307216,1,3,0.26829268292683
164,368542041104,BA,36854,"LAURO DE FREITAS",204,1104,CAIC,"RUA PROF. TEOCRITO BATISTA, S/N - JARDIM PICUAIA - ZONA URBANA",ITINGA,42700000,4,"Rua Professor Theocrito Batista",20,"Lauro de Freitas",42700000,Caji,google_maps,-12.8888577,-38.3315747,-1,3,1,0.328125
165,368542041112,BA,36854,"LAURO DE FREITAS",204,1112,"ESCOLA MUNICIPAL PAULO FREIRE","RUA SANTA CECÍLIA, S/N - JARDIM INDEPENDÊNCIA - ZONA URBANA",ITINGA,42700000,3,"Jardim Independència Rua F",,"Lauro de Freitas",42700000,"Jardim das Margaridas",google_maps,-12.8968387,-38.3496781,407.09533103802,1,2,0.38095238095238
166,368542041120,BA,36854,"LAURO DE FREITAS",204,1120,"GINASIO EDVALDO BOAVENTURA","RUA DOIS DE JULHO S/N - ZONA URBANA","AREIA BRANCA",42700000,7,"Rua Dois de Julho",,"Lauro de Freitas",42700000,"Areia Branca",here_geocoder,-12.84113,-38.35288,8.9890236690161,3,2,0.3695652173913
167,368542041139,BA,36854,"LAURO DE FREITAS",204,1139,"ESCOLA MUNICIPAL ESFINGE","PRAÇA DA MATRIZ S/N - ZONA URBANA","AREIA BRANCA",42700000,8,"Rua Miguel Santos Silva",,"Lauro de Freitas",42700000,,arcgis_online,-12.89731,-38.32482,-1,1,1,0.25
168,368542041147,BA,36854,"LAURO DE FREITAS",204,1147,"ESCOLA MUNICIPAL CAPITULINO DOS SANTOS","RUA DIRETA DO JAMBEIRO S/N - ZONA URBANA","AREIA BRANCA",42700000,3
169,368542041155,BA,36854,"LAURO DE FREITAS",204,1155,"ESCOLA TENENTE GUSTAVO SANTOS","RUA DIRETA DO CAPELÃO 130 - ZONA URBANA","AREIA BRANCA",42700000,4,"Rua Direta do Capelão",,"Lauro de Freitas",42700000,Caji,here_geocoder,-12.86443,-38.35248,28.727043317504,2,2,0.43137254901961
170,368542041163,BA,36854,"LAURO DE FREITAS",204,1163,"COLÉGIO ESTADUAL HERMANO GOUVEIA NETO","LOTEAMENTO VIDA NOVA S/N - ZONA URBANA",CAJI,42700000,10
171,368542041171,BA,36854,"LAURO DE FREITAS",204,1171,"ESCOLA MUNICIPAL SANTA JÚLIA","LOTEAMENTO SANTA JÚLIA, S/N  - ZONA URBANA",ITINGA,42700000,14,"Rua Jerónimo José de Santana",,"Lauro de Freitas",42700000,"Vila de Senna",google_maps,-12.8971971,-38.3417722,-1,1,1,0.23913043478261
172,368542041180,BA,36854,"LAURO DE FREITAS",204,1180,"ESCOLA MUNICIPAL VIDA NOVA","RUA VIA LOCAL, S/N - ZONA URBANA","VIDA NOVA",42700000,10,"Vila Coletora",30,"Lauro de Freitas",42700000,"Polo Habitacional Litoral Norte",google_maps,-12.8820525,-38.3273077,-1,3,1,0.20512820512821
173,368542041198,BA,36854,"LAURO DE FREITAS",204,1198,"ESCOLA MUNICIPAL TALISMÃ","LOTEAMENTO JARDIM TALISMÃ, S/N - ZONA URBANA",ITINGA,42700000,4
174,372141851015,BA,37214,"MATA DE SÃO JOÃO",185,1015,"COLÉGIO MUNICIPAL MONSENHOR BARBOSA - C. M. M. B.","RUA LAURINDO DE OLIVEIRA RÉGIS, S/N - ZONA URBANA",CENTRO,48280000,24,"Rua Laurindo Régis",,"Mata de São João",48280000,,arcgis_online,-12.535991456504,-38.296079499641,-1,1,1,0.35185185185185
175,372141851058,BA,37214,"MATA DE SÃO JOÃO",185,1058,"COLÉGIO ESTADUAL BRÁULIO SAMPAIO","RUA DERALDO FREITAS, S/N - ZONA URBANA",BAIXIO,48280000,7,"Rua Deraldo Freitas",,"Mata de São João",48280000,"Mata de São João",here_geocoder,-12.53913,-38.29857,1339.209048795,1,2,0.45238095238095
176,372141851082,BA,37214,"MATA DE SÃO JOÃO",185,1082,"ESCOLA MUNICIPAL ENGENHEIRO LUÍS S. FONTES","COMUNIDADE DE PITANGA  - ZONA RURAL","LOCALIDADE PITANGA",48280000,1
177,372141851090,BA,37214,"MATA DE SÃO JOÃO",185,1090,"ESCOLA MUNICIPAL EZILDA PINTO DO CARMO","RUA SÃO CRISTÓVÃO, S/N - ZONA RURAL","SEMPRE VERDE",48280000,7,"Rua São Cristóvão",,"Mata de São João",48282000,"Amado Bahia",here_geocoder,-12.56523,-38.30316,-1,1,1,0.36170212765957
178,372141851104,BA,37214,"MATA DE SÃO JOÃO",185,1104,"ESCOLA MUNICIPAL ARNALDO SOUZA PRADO","PORTÃO DO LUNDA, S/N - ZONA RURAL","LOCALIDADE JK",48280000,6,"Rua da Luanda",,"Mata de São João",48280000,,arcgis_online,-12.527525162595,-38.303571948122,-1,2,1,0.22222222222222
179,372141851120,BA,37214,"MATA DE SÃO JOÃO",185,1120,"ESCOLA MUNICIPAL ANTONIO PAIVA TOLENTINO","LOCALIDADE SAUÍPE - ZONA RURAL","LOCALIDADE SAUÍPE",41820000,4,"Rodovia BA 099, Km 76",s/n,"Mata de São João",48282970,"Linha Verde",google_maps,-12.4434834,-37.9239311,-1,1,1,0.16666666666667
180,372141851139,BA,37214,"MATA DE SÃO JOÃO",185,1139,"ESCOLA MUNICIPAL WILHELM HERMANN KLAUS PETERS","RUA DO CAMPO, S/N - ZONA RURAL","DISTRITO AÇU DA TORRE",48280000,5,"Praça Barão Açu da Torre",,"Mata de São João",48280000,"Mata de São João",here_geocoder,-12.52962,-38.29549,-1,1,1,0.4
181,372141851147,BA,37214,"MATA DE SÃO JOÃO",185,1147,"ESCOLA MUNICIPAL SÃO FRANCISCO","AV ACM, S/N - ZONA RURAL","LOCALIDADE PRAIA DO FORTE",48280000,6,"Avenida do Farol",S/N,"Mata de São João",48280000,"Zona Rural",google_maps,-12.5777424,-38.0022016,-1,1,1,0.25
182,372141851155,BA,37214,"MATA DE SÃO JOÃO",185,1155,"ESCOLA MUNICIPAL ANTONIO FRANCISCO ALVES","POVOADO DE PEDRA DO SALGADO - ZONA RURAL","LOCALIDADE PEDRA DO SALGADO",48280000,2
183,372141851163,BA,37214,"MATA DE SÃO JOÃO",185,1163,"ESCOLA MUNICIPAL ELIAS JOSÉ DOS SANTOS","RUA CARLOS GOMES, S/N - ZONA URBANA",CABORÉ,48280000,3,"Rua Carlos Gomes",,"Mata de São João",48280000,"Mata de São João",here_geocoder,-12.54294,-38.30529,10.159499476494,1,2,0.4
184,372141851171,BA,37214,"MATA DE SÃO JOÃO",185,1171,"ESCOLA MUNICIPAL SÃO VICENTE","RUA DO TELEFONE, S/N - ZONA RURAL","LOCALIDADE DIOGO",41820000,2
185,372141851198,BA,37214,"MATA DE SÃO JOÃO",185,1198,"ESCOLA MUNICIPAL DOUTOR JOSÉ SEIXAS FILHO","RUA DIRETA, S/N - ZONA RURAL","LOCALIDADE PRAIA DE IMBASSAÍ",48280000,5
186,372141851201,BA,37214,"MATA DE SÃO JOÃO",185,1201,"ESCOLA MUNICIPAL AMELIO BATISTA FILHO","ENTRONCAMENTO VELHO, S/N - ZONA URBANA",ENTRONCAMENTO,48280000,3,"Rua do Entroncamento",,"Mata de São João",48280000,"Mata de São João",here_geocoder,-12.52912,-38.30747,983.73564154868,1,2,0.36734693877551
187,372141851228,BA,37214,"MATA DE SÃO JOÃO",185,1228,"ESCOLA MUNICIPAL MARIA ODILIA VASCONCELOS","ANTONIO LUIZ GARCEZ, S/N - ZONA URBANA",CENTRO,48280000,12,"Rua Luíz Antônio Garcez",,"Mata de São João",48280000,"Mata de São João",here_geocoder,-12.53059,-38.29736,2829.3778793252,2,2,0.26190476190476
188,372141851236,BA,37214,"MATA DE SÃO JOÃO",185,1236,"ESCOLA MUNICIPAL EMANOEL FONTES","RUA SANTA CATARINA,S/N - ZONA URBANA","MONTE LÍBANO",48280000,3,"Rua Santa Catarina",,"Mata de São João",48280000,"Mata de São João",here_geocoder,-12.51736,-38.31491,2352.3344685755,2,2,0.375
189,372141851244,BA,37214,"MATA DE SÃO JOÃO",185,1244,"ESCOLA MUNICIPAL ÁUREO DE OLIVEIRA FILHO","RUA DIRETA DE MALHADAS, S/N - ZONA URBANA","LOCALIDADE MALHADAS",48280000,4,BA-512,10,"Mata de São João",48280000,,google_maps,-12.5237695,-38.0099912,-1,1,1,0.051724137931034
190,372141851252,BA,37214,"MATA DE SÃO JOÃO",185,1252,"ESCOLA MUNICIPAL IDALBA TOLENTINO","RUA DIRETA DO AREAL, S/N - ZONA RURAL","LOCALIDADE AREAL",48280000,1
191,372141851260,BA,37214,"MATA DE SÃO JOÃO",185,1260,"ESCOLA MUNICIPAL ISAAC MARAMBAIA","DIRETA DE BARRO BRANCO, S/N - ZONA RURAL","LOCALIDADE BARRO BRANCO",48280000,1
192,372141851279,BA,37214,"MATA DE SÃO JOÃO",185,1279,"ESCOLA MUNICIPAL LAFAIETE COUTINHO","VILA DE ITAPECIRICA, S/N - ZONA RURAL","LOCALIDADE ITAPECIRICA",48280000,1
193,372141851287,BA,37214,"MATA DE SÃO JOÃO",185,1287,"ESCOLA MUNICIPAL JOÃO PEREIRA VASCONCELOS","PRAÇA DE AÇUZINHO, S/N - ZONA RURAL","LOCALIDADE AÇUZINHO",48280000,2
194,372141851295,BA,37214,"MATA DE SÃO JOÃO",185,1295,"ESCOLA MUNICIPAL PEDRO JOAQUIM DE SOUZA","DIRETA DO PAU GRANDE, S/N - ZONA RURAL","LOCALIDADE PAU GRANDE",48280000,1
195,372141851309,BA,37214,"MATA DE SÃO JOÃO",185,1309,"ESCOLA MUNICIPAL MARIA DE LOURDES SEIXAS","LOCALIDADE DE VILA DE CAMAÇARI, S/N - ZONA RURAL","VILA DE CAMAÇARI",41820000,1
196,372141851317,BA,37214,"MATA DE SÃO JOÃO",185,1317,"ESPECIAL ESCOLA MUNICIPAL MARIA ODILIA VASCONCELOS","RUA ANTONIO LUIZ GARCEZ, S/N - ZONA URBANA",CENTRO,48280000,1,"Rua Luíz Antônio Garcez",,"Mata de São João",48280000,"Mata de São João",here_geocoder,-12.53059,-38.29736,1182.0236677447,1,2,0.30434782608696
197,380592001015,BA,38059,POJUCA,200,1015,"ESCOLA CONSELHEIRO SARAIVA","RUA CONSELHEIRO CHAVES, N 10 - ZONA URBANA",CENTRO,48120000,4,"Rua Conselheiro Chaves",10,Pojuca,48120000,Pojuca,here_geocoder,-12.4329909,-38.3291767,85.733967980873,1,2,0.47826086956522
198,380592001023,BA,38059,POJUCA,200,1023,"COLÉGIO ESTADUAL PADRE JOÃO MONTEZ","PRAÇA JURACY MAGALHÃES, S/N - ZONA URBANA",CRUZEIRO,48120000,11,"Rua Juracy Magalhães",,Pojuca,48120000,Pojuca,here_geocoder,-12.42988,-38.32661,1612.2252679409,2,2,0.41666666666667
199,380592001074,BA,38059,POJUCA,200,1074,"COLÉGIO MUNICIPAL PRESIDENTE CASTELO BRANCO","RUA PERCÍLIO DOS SANTOS, S/N - ZONA URBANA","POJUCA NOVA",48120000,19,"Rua Percilo dos Santos",,Pojuca,48120000,Pojuca,here_geocoder,-12.42906,-38.33198,-1,3,1,0.40384615384615
200,380592001112,BA,38059,POJUCA,200,1112,"ESCOLA MUNICIPAL JOÃO DA COSTA LIBÓRIO","RUA DA ESTAÇÃO, S/N - ZONA URBANA",CENTRAL,48120000,3,Pojuca,,Pojuca,48120000,,arcgis_online,-12.422511,-38.31740775,-1,1,1,0.1
201,380592001139,BA,38059,POJUCA,200,1139,"CENTRO EDUCACIONAL PEDRO LEAL CARDOSO","DISTRITO MIRANGA, S/N - ZONA RURAL","DISTRITO MIRANGA",48120000,2
202,380592001147,BA,38059,POJUCA,200,1147,"COLÉGIO ESTADUAL LUIZ EDUARDO MAGALHÃES","RUA CONCELHEIRO CHAVES, S/N - ZONA URBANA",CENTRO,48120000,15,"Rua Conselheiro Chaves",,Pojuca,48120000,Pojuca,here_geocoder,-12.43299,-38.32959,7.9757115481286,2,2,0.46666666666667
203,380592001155,BA,38059,POJUCA,200,1155,"ESCOLA TEREZA FREIRE MARINS","PARQUE RESIDENCIAL POJUCA II - ZONA URBANA","POJUCA II",48120000,10,Pojuca,,Pojuca,48120000,,arcgis_online,-12.422511,-38.31740775,-1,1,1,0.12
204,380592001163,BA,38059,POJUCA,200,1163,"ESPECIAL COLÉGIO ESTADUAL LUIZ EDUARDO MAGALHÃES","RUA CONSELHEIRO CHAVES, S/N - ZONA URBANA",CENTRO,48120000,1,"Rua Conselheiro Chaves",,Pojuca,48120000,Pojuca,here_geocoder,-12.43299,-38.32959,7.9757115481286,1,2,0.48888888888889
205,380592001171,BA,38059,POJUCA,200,1171,"ESCOLA MUNICIPAL NILZA RÊGO","RUA PERCILIO DOS SANTOS, S/N - ZONA URBANA","POJUCA NOVA",48120000,4,"Rua Percilo dos Santos",,Pojuca,48120000,Pojuca,here_geocoder,-12.42906,-38.33198,-1,3,1,0.40384615384615
206,380592001180,BA,38059,POJUCA,200,1180,"DIRETORIA DE PLANEJAMENTO - ANTIGO CEAP","TRAV ANTONIO BATISTA, S/N - ZONA URBANA","POJUCA NOVA",48120000,2,"Rua Antônio Batista",,Pojuca,48120000,Pojuca,here_geocoder,-12.42661,-38.33069,2261.7377526934,2,2,0.30769230769231
207,380592001198,BA,38059,POJUCA,200,1198,"COLÉGIO JOÃO PAULO II","RUA ALTO DAS POMBAS, SN - ZONA URBANA",RETIRO,48120000,1,Pojuca,,Pojuca,48120000,,arcgis_online,-12.422511,-38.31740775,-1,1,1,0.097560975609756
208,380592001201,BA,38059,POJUCA,200,1201,"COLÉGIO ENGENHEIRO OTONIEL NOGUEIRA LIBÓRIO","PRAÇA ACM, SN - ZONA URBANA",CENTRO,48120000,2,Pojuca,,Pojuca,48120000,,arcgis_online,-12.422511,-38.31740775,-1,1,1,0.12903225806452
209,38490101066,BA,38490,SALVADOR,10,1066,"COLÉGIO ESTADUAL ANGELITA MORENO","RUA DAS ARARAS S/N - ZONA URBANA",IMBUÍ,41720010,13,"Rua das Araras",,Salvador,41720010,Imbuí,here_geocoder,-12.96958,-38.4358,1193.99403724,2,2,0.37837837837838
210,38490101074,BA,38490,SALVADOR,10,1074,"ESCOLA ESTADUAL JENNY GOMES","RUA CARAPEBA SN VILA MILITAR DA AERONAUTICA - ZONA URBANA",ITAPUÃ,41610120,10,"Vila Militar",,Salvador,,Matatu,google_maps,-12.9769401,-38.4969629,-1,1,1,0.19047619047619
211,38490101970,BA,38490,SALVADOR,10,1970,"ESCOLA RÔMULO ALMEIDA","RUA DAS ARARAS, S/N - ZONA URBANA",IMBUÍ,41720010,18,"Rua das Araras",,Salvador,41720010,Imbuí,here_geocoder,-12.96958,-38.4358,1193.99403724,2,2,0.37837837837838
212,38490101988,BA,38490,SALVADOR,10,1988,"INSTITUTO MUNICIPAL DE EDUCAÇÃO PROFESSOR JOSÉ ARAPIRACA - IMEJA","RUA ABELARDO DE ANDRADE CARVALHO, S/N - ZONA URBANA","BOCA DO RIO",41706710,17,"Rua Abelardo Andrade de Carvalho",,Salvador,41706710,"Boca do Rio",here_geocoder,-12.97713,-38.43,2247.1698948111,1,3,0.43333333333333
213,38490102003,BA,38490,SALVADOR,10,2003,"ESCOLA MONSENHOR BARBOSA","CONJUNTO GUILHERME MARBACK S/N - ZONA URBANA","BOCA DO RIO",41710050,15,"Rua Guilherme Marback",,Salvador,41720005,"Boca do Rio",google_maps,-12.9728621,-38.43407,-1,1,1,0.35185185185185
214,38490102011,BA,38490,SALVADOR,10,2011,"ESCOLA GEORGINA RAMOS DA SILVA","RUA DIDIER LUZ S/N FIM DE LINHA - ZONA URBANA","BOCA DO RIO",40030000,10,"Rua Desembargador Lineu Lapa Barreto",,Salvador,41705100,"Boca do Rio",google_maps,-12.9800559,-38.4335717,2001.3017979902,1,3,0.32727272727273
215,38490102038,BA,38490,SALVADOR,10,2038,"ESPECIAL UNIVERSIDADE CATÓLICA DO SALVADOR","AVENIDA PINTO DE AGUIAR, 2589 - ZONA URBANA",PATAMARES,41740090,1,"Avenida Professor Pinto de Aguiar",,Salvador,41740090,Patamares,here_geocoder,-12.95258,-38.40767,2093.927235349,1,3,0.38
216,38490102046,BA,38490,SALVADOR,10,2046,"ESCOLA ESTADUAL IEDA BARRADAS CARNEIRO","RUA BOM SUCESSO S/N - ZONA URBANA","ALTO DO COQUEIRINHO",41600000,7,"Rua Bonsucesso",,Salvador,,"Alto do Coqueirinho",here_geocoder,-12.94126,-38.37127,600.76571073869,1,2,0.25490196078431
217,38490102062,BA,38490,SALVADOR,10,2062,"COLÉGIO VILAS","RUA DO ROUXINOL, N 71, JARDIM BOLANDEIRA - ZONA URBANA",IMBUÍ,41720052,9,"Rua do Rouxinol",71,Salvador,41720052,Imbuí,google_maps,-12.9716107,-38.4386948,1296.5623367751,1,3,0.26315789473684
218,38490102070,BA,38490,SALVADOR,10,2070,"ESCOLA ESTADUAL NOSSA SENHORA DA PAZ","PRAÇA DAS DECISÕES S/N - ZONA URBANA","BAIRRO DA PAZ",41515000,11,"Avenida Luís Viana",,Salvador,41515000,"Bairro da Paz",google_maps,-12.9249569,-38.3749446,-1,2,1,0.18367346938776
219,38490102097,BA,38490,SALVADOR,10,2097,"ESPECIAL COLÉGIO ESTADUAL ANGELITA MORENO","RUA DAS ARARAS, S/N - ZONA URBANA",IMBUÍ,41720010,1,"Rua das Araras",,Salvador,41720010,Imbuí,here_geocoder,-12.96958,-38.4358,1193.99403724,2,2,0.37837837837838
220,38490102127,BA,38490,SALVADOR,10,2127,"ESPECIAL COLÉGIO VILAS","RUA DO ROUXINOL, N 71 - JARDIM BOLANDEIRA - ZONA URBANA",IMBUÍ,41720052,1,"Rua do Rouxinol",71,Salvador,41720052,Imbuí,google_maps,-12.9716107,-38.4386948,1296.5623367751,1,3,0.26315789473684
221,38490102135,BA,38490,SALVADOR,10,2135,"ESPECIAL ESCOLA ESTADUAL NOSSA SENHORA DA PAZ","PRAÇA DAS DECISÕES, S/N - ZONA URBANA","BAIRRO DA PAZ",41110530,1,"Avenida Um da Paz",,Salvador,41216030,Sussuarana,here_geocoder,-12.9318,-38.44357,1551.1884701669,1,1,0.26530612244898
222,38490102178,BA,38490,SALVADOR,10,2178,"ESCOLA MUNICIPAL METODISTA SUSANA WESLEY","RUA SIMÕES FILHO, 955 - ZONA URBANA","BOCA DO RIO",41705010,10,"Rua Simões Filho",,Salvador,41705010,"Boca do Rio",here_geocoder,-12.98005,-38.43266,146.17445781524,1,3,0.37777777777778
223,38490102186,BA,38490,SALVADOR,10,2186,"UNIVERSIDADE CATÓLICA DO SALVADOR","AV. PINTO DE AGUIAR, Nº 2589, CENTRO DE ENSINO II - ZONA URBANA",PITUAÇU,41740090,25,"Avenida Professor Pinto de Aguiar",2589,Salvador,41740090,Pituaçu,google_maps,-12.9492057,-38.4133345,-1,2,1,0.26086956521739
224,38490102208,BA,38490,SALVADOR,10,2208,"ESPECIAL ESCOLA MUNICIPAL METODISTA SUSANA WESLEY","RUA SIMÕES FILHO, Nº 955 - ZONA URBANA","BOCA DO RIO",41705010,1,"Rua Simões Filho",,Salvador,41705010,"Boca do Rio",here_geocoder,-12.98005,-38.43266,146.17445781524,1,3,0.3469387755102
225,38490102216,BA,38490,SALVADOR,10,2216,"FUNDAÇÃO BAHIANA DE ENGENHARIA","AV. ADHEMAR PINHEIRO LEMOS, Nº 1617 - ZONA URBANA",IMBUÍ,41720030,10,"Rua Adhemar Pinheiro Lemos",,Salvador,41720,Imbuí,google_maps,-12.9664695,-38.4359123,819.978297166,1,2,0.42592592592593
226,38490102232,BA,38490,SALVADOR,10,2232,"ESCOLA MUNICIPAL CIDADE VITÓRIA DA CONQUISTA","RUA NOSSA SENHORA DO AMPARO DE ITAPUÃ, Nº 1 - ZONA URBANA",ITAPUÃ,41600515,6,"Rua Nossa Senhora do Amparo",1,Salvador,41500470,Itapuã,here_geocoder,-12.9423602,-38.3658615,795.89463428148,1,2,0.421875
227,38490102240,BA,38490,SALVADOR,10,2240,"UNIRB - FACULDADE REGIONAL DA BAHIA","AV. TAMBURUGY, Nº 474 - ZONA URBANA",PATAMARES,41680440,6,"Avenida Tamburugy",474,Salvador,41611025,Patamares,google_maps,-12.9588834,-38.4011796,-1,2,1,0.18604651162791
228,38490102259,BA,38490,SALVADOR,10,2259,"ESCOLA MUNICIPAL NOVA DO BAIRRO DA PAZ","RUA NELSON MANDELA, S/N, ALTO DA BELA VISTA - ZONA URBANA","BAIRRO DA PAZ",41515260,9,"Rua Nelson Mandela",,Salvador,41515260,"Bairro da Paz",here_geocoder,-12.92638,-38.37728,1546.6184876306,1,3,0.26865671641791
229,38490102267,BA,38490,SALVADOR,10,2267,"ESCOLA MUNICIPAL MANUEL LISBOA","RUA ANTONINO CASAES, N 199 - ZONA URBANA",ITAPUÃ,41635370,5,"Rua Antônio Casaes",199,Salvador,41635370,Itapuã,here_geocoder,-12.9473256,-38.3700971,729.91471646456,1,3,0.35555555555556
230,38490102283,BA,38490,SALVADOR,10,2283,"ESCOLA MUNICIPAL CARLOS MURION","RUA BARRETO PEDROSO, N 295 - ZONA URBANA",PITUAÇU,41741030,6,"Rua Barreto Pedroso",295,Salvador,41741030,Pituaçu,google_maps,-12.969717,-38.413017,1263.8819732232,1,3,0.41304347826087
231,38490102291,BA,38490,SALVADOR,10,2291,"COLÉGIO MONTESSORIANO","RUA ABELARDO ANDRADE DE CARVALHO, N. 5 - ZONA URBANA","BOCA DO RIO",41706710,6,"Rua Abelardo Andrade de Carvalho",s/n,Salvador,41706710,"Boca do Rio",google_maps,-12.9779632,-38.4273091,3696.3229543747,1,3,0.52459016393443
232,38490102321,BA,38490,SALVADOR,10,2321,"ESCOLA MUNICIPAL AGNELO DE BRITO","RUA MANOEL ALMEIDA PACHECO, SN - ZONA URBANA","BOCA DO RIO",41706050,8,"Rua Manoel Almeida Pachêco",,Salvador,41706050,"Boca do Rio",google_maps,-12.9784435,-38.4328819,89.271944554378,1,3,0.47169811320755
233,38490102330,BA,38490,SALVADOR,10,2330,"ESPECIAL ESCOLA MUNICIPAL AGNELO DE BRITO","RUA MANOEL ALMEIDA PACHECO, SN - ZONA URBANA","BOCA DO RIO",41706050,1,"Rua Manoel Almeida Pachêco",,Salvador,41706050,"Boca do Rio",google_maps,-12.9784435,-38.4328819,89.271944554378,1,3,0.47169811320755
234,38490102348,BA,38490,SALVADOR,10,2348,"ESCOLA EDIVALDO BOAVENTURA","CONJUNTO VALE DOS RIOS, S/N - ZONA URBANA",STIEP,41770030,8,"Rua Arthur Fraga",,Salvador,41770030,Stiep,google_maps,-12.9795646,-38.4477768,-1,1,1,0.18181818181818
235,38490102356,BA,38490,SALVADOR,10,2356,"COLÉGIO ESTADUAL DO STIEP CARLOS MARIGHELLA","CONJUNTO HABITACIONAL STIEP, QUADRA 01, S/N - ZONA URBANA",STIEP,41775010,12,"Quadra 01",,Salvador,41342678,"Fazenda Grande 2",google_maps,-12.9091845,-38.4066145,-1,1,1,0.15254237288136
236,3849011015,BA,38490,SALVADOR,1,1015,"COLÉGIO SANTA CECÍLIA","RUA FLORIANÓPOLIS, 84 - ZONA URBANA","JARDIM BRASIL",40140320,7,"Rua Florianópolis",84,Salvador,40140320,Barra,google_maps,-13.0050122,-38.5274865,146.21723644276,1,3,0.38297872340426
237,3849011023,BA,38490,SALVADOR,1,1023,"CABANA DA BARRA","AV. AFONSO CELSO 1 - ZONA URBANA",BARRA,40140080,4,"Rua Afonso Celso",1,Salvador,40140080,Barra,here_geocoder,-13.0089268,-38.5319419,2329.3663613775,1,3,0.36111111111111
238,3849011066,BA,38490,SALVADOR,1,1066,"BAHIA BRITSH CLUB (CLUBE INGLÊS)","RUA BANCO DOS INGLESES 20 - ZONA URBANA","CAMPO GRANDE",40080040,5,"Rua Banco dos Inglêses",20,Salvador,40080040,"Campo Grande",google_maps,-12.9871061,-38.5228545,447.07853648744,1,3,0.4
239,3849011074,BA,38490,SALVADOR,1,1074,"COLÉGIO ESTADUAL DEPUTADO MANOEL NOVAES","AV. ARAÚJO PINHO, 30 - ZONA URBANA",CANELA,40110150,19,"Avenida Araújo Pinho",30,Salvador,40110150,Canela,here_geocoder,-12.990283,-38.5206487,2530.9442811687,1,3,0.30769230769231
240,3849011082,BA,38490,SALVADOR,1,1082,"PAVILHÃO DE AULAS DO CANELA - UFBA","RUA REITOR MIGUEL CALMON, S/N- ZONA URBANA",CANELA,40110100,20,"Avenida Reitor Miguel Calmon",,Salvador,40110100,Canela,here_geocoder,-12.9957499,-38.52287,2838.328469928,1,3,0.38297872340426
241,3849011112,BA,38490,SALVADOR,1,1112,"ESCOLA DE BELAS ARTES","AV. ARAÚJO PINHO 212 - ZONA URBANA",CANELA,40110150,7,"Avenida Araújo Pinho",212,Salvador,40110150,Canela,here_geocoder,-12.99151,-38.52125,1352.5719591927,1,3,0.3
242,38490111848,BA,38490,SALVADOR,11,1848,"ESCOLA MUNICIPAL AFRÂNIO PEIXOTO","RUA 1 QUADRA C FIM DE LINHA - ZONA URBANA","SETE DE ABRIL",41385370,12
243,38490111856,BA,38490,SALVADOR,11,1856,"CENTRO SOCIAL URBANO DE CASTELO BRANCO","RUA A 3A. ETAPA DE CASTELO BRANCO - ZONA URBANA","CASTELO BRANCO (3A ETAPA)",41320010,14,"Rua Santa Luzia de Castelo Branco",,Salvador,41320370,"Castelo Branco",google_maps,-12.9081625,-38.4356658,-1,2,1,0.38028169014085
244,38490111864,BA,38490,SALVADOR,11,1864,"ESPECIAL ESCOLA MUNICIPAL AFRÂNIO PEIXOTO","RUA 1, QUADRA C, FIM DE LINHA - ZONA URBANA","SETE DE ABRIL",41385370,1
245,38490111872,BA,38490,SALVADOR,11,1872,"CRECHE / CENTRO DE EDUCAÇÃO INFANTIL UNIDOS DE CASTELO BRANCO","RUA DOS UNIDOS, S/N - ZONA URBANA","CASTELO BRANCO (4A ETAPA)",41320010,2,"Rua dos Unidos",,Salvador,41320380,"Castelo Branco",here_geocoder,-12.90766,-38.43554,24.283663677354,1,2,0.25
246,38490111880,BA,38490,SALVADOR,11,1880,"ESCOLA ESTADUAL CONSELHEIRO VICENTE PACHECO DE OLIVEIRA","RUA DAS PAULINAS, S/N - FIM DE LINHA - ZONA URBANA","DOM AVELAR",41315150,10,"Rua das Paulinas",,Salvador,41315150,"Dom Avelar",here_geocoder,-12.90307,-38.44885,215.24252868117,1,3,0.28571428571429
247,38490111899,BA,38490,SALVADOR,11,1899,"ESCOLA ESTADUAL RAIMUNDO DE ALMEIDA GOUVEIA","RUA A, S/N, 2A ETAPA DE CASTELO BRANCO - ZONA URBANA","CASTELO BRANCO (2A ETAPA)",41320010,17,"Rua Santa Luzia de Castelo Branco",,Salvador,41320370,"Castelo Branco",here_geocoder,-12.90795,-38.4357,-1,3,1,0.37837837837838
248,38490111902,BA,38490,SALVADOR,11,1902,"ESPECIAL ESCOLA ESTADUAL RAIMUNDO DE ALMEIDA GOUVEIA","RUA A, S/N, 2ª ETAPA DE CASTELO BRANCO - ZONA URBANA","CASTELO BRANCO (2A ETAPA)",41320020,1,"Rua 23-Quadra 10- Castelo Branco | 2ª Etapa",,Salvador,41310,"Castelo Branco",google_maps,-12.9006738,-38.4341534,-1,4,1,0.42666666666667
249,38490111910,BA,38490,SALVADOR,11,1910,"ESCOLA ESTADUAL DE 1. GRAU DANIEL LISBOA","RUA DR. ARTUR GONZALEZ 181 - ZONA URBANA","PAU DA LIMA",41235005,8,"Rua Doutor Arthur Gonzales",181,Salvador,41350290,"Pau da Lima",here_geocoder,-12.9208003,-38.4434584,1137.506878195,1,3,0.3
250,38490111929,BA,38490,SALVADOR,11,1929,"ESCOLA MUNICIPAL ALLAN KARDEC DE PIRAJÁ","RUA MARECHAL DEODORO S/N - ZONA URBANA","PAU DA LIMA",41235030,5,"Rua Marechal Deodoro",,Salvador,41235030,"Pau da Lima",here_geocoder,-12.9187999,-38.44512,2225.5649891443,2,3,0.41666666666667
251,38490111937,BA,38490,SALVADOR,11,1937,"ESCOLA ESTADUAL PROFESSORA MARIA DE LOURDES PARADA FRANCH","RUA MARECHAL DEODORO 11 - ZONA URBANA","PAU DA LIMA",41235030,5,"Rua Marechal Deodoro",11,Salvador,41235030,"Pau da Lima",here_geocoder,-12.9195883,-38.4471518,2057.4595906494,2,3,0.42553191489362
252,38490111945,BA,38490,SALVADOR,11,1945,"ESCOLA MUNICIPAL ROBERTO CORREIA","RUA JAIME VIEIRA LIMA S/N - ZONA URBANA","PAU DA LIMA",41235000,11,"Rua Jayme Vieira Lima",,Salvador,41235000,"Pau da Lima",here_geocoder,-12.91765,-38.44274,725.27721738429,1,3,0.40816326530612
253,38490111953,BA,38490,SALVADOR,11,1953,"ESPECIAL ESCOLA ESTADUAL PROFESSORA MARIA DE LOURDES PARADA FRANCH","RUA MARECHAL DEODODRO 11 - ZONA URBANA","PAU DA LIMA",41235030,1,"Rua Marechal Deodoro",11,Salvador,41235030,"Pau da Lima",here_geocoder,-12.9195883,-38.4471518,64.955537462649,2,2,0.41666666666667
254,38490111961,BA,38490,SALVADOR,11,1961,"ESCOLA MARISSOL","RUA SÃO DOMINGOS, 15 - ZONA URBANA","PAU DA LIMA",41253050,4,"Rua São Domingos",15,Salvador,41253050,"Sao Marcos",google_maps,-12.9233141,-38.4417151,1360.2264692875,2,2,0.32558139534884
255,38490111970,BA,38490,SALVADOR,11,1970,"ESPECIAL ESCOLA MUNICIPAL ARLETE MAGALHÃES - GIDAM","RUA B, S/N, LGO. DA FEIRINHA, 1ª ETAPA CASTELO BRANCO - ZONA URBANA","CASTELO BRANCO (1A ETAPA)",41300000,1,"Rua Castelo Branco",,Salvador,41320040,"Castelo Branco",here_geocoder,-12.89937,-38.4413399,-1,2,1,0.20224719101124
256,3849011198,BA,38490,SALVADOR,1,1198,"FACULDADE DE DIREITO DA UFBA","RUA DA PAZ S/N - ZONA URBANA",GRAÇA,40150140,14,"Rua da Paz",,Salvador,40150140,Graça,here_geocoder,-12.9976,-38.52217,163.3585758318,2,3,0.3030303030303
257,38490111988,BA,38490,SALVADOR,11,1988,"ESPECIAL ESCOLA ESTADUAL CONSELHEIRO VICENTE PACHECO DE OLIVEIRA","RUA DAS PAULINAS, S/N - FIM DE LINHA - ZONA URBANA","DOM AVELAR",41315150,1,"Rua das Paulinas",,Salvador,41315150,"Dom Avelar",here_geocoder,-12.90307,-38.44885,215.24252868117,1,3,0.28571428571429
258,38490111996,BA,38490,SALVADOR,11,1996,"ESCOLA DE 1. GRAU DEPUTADO ROGÉRIO REGO","RUA LUCIANO GOMES S/N - ZONA URBANA","JARDIM CAJAZEIRA",41230350,14,"Rua Luciano Gomes",,Salvador,41230350,"Jardim Cajazeiras",here_geocoder,-12.91655,-38.44957,2674.8778128683,2,3,0.34
259,38490112003,BA,38490,SALVADOR,11,2003,"ESCOLA ESTADUAL MARIA AMÉLIA MENEZES SANTOS","ALAMEDA ANTÔNIO CARLOS MAGALHÃES S/N ALTO DO COROADO - ZONA URBANA","SÃO MARCOS",41253260,10,"Avenida Antônio Carlos Magalhães",,Salvador,41150200,"Pau Miúdo",here_geocoder,-12.96756,-38.4799999,-1,1,1,0.38961038961039
260,3849011201,BA,38490,SALVADOR,1,1201,"FACULDADE DE EDUCAÇÃO DA UFBA","RUA REITOR MIGUEL CALMON, S/N - ZONA URBANA",CANELA,40110100,7,"Avenida Reitor Miguel Calmon",,Salvador,40110100,Canela,here_geocoder,-12.9957499,-38.52287,2838.328469928,1,3,0.38297872340426
261,38490112011,BA,38490,SALVADOR,11,2011,"ESCOLA ESTADUAL PROF. ROBERTO SANTOS","RUA A, FIM DE LINHA - ZONA URBANA","CASTELO BRANCO (3A ETAPA)",41320010,9,"Rua Castelo Branco",3A,Salvador,41320040,"Castelo Branco",here_geocoder,-12.9004264,-38.4409825,-1,2,1,0.32142857142857
262,38490112038,BA,38490,SALVADOR,11,2038,"ESCOLA MUNICIPAL ARLETE MAGALHÃES - GIDAM","RUA B, S/N, LGO DA FEIRINHA, 1A ETAPA DE CASTELO BRANCO - ZONA URBANA","CASTELO BRANCO (1A ETAPA)",41300000,19,"Rua Bela Vista de Castelo Branco",,Salvador,41322075,"Castelo Branco",google_maps,-12.9039225,-38.4387358,-1,3,1,0.32222222222222
263,38490112046,BA,38490,SALVADOR,11,2046,"ESCOLA MUNICIPAL SOCIEDADE FRATERNAL","RUA PARQUE ASCENÇÃO, N 3 - ZONA URBANA","PAU DA LIMA",41253260,8,"Avenida Ascenção",,Salvador,41387,"Pau da Lima",google_maps,-12.9203715,-38.4395555,-1,1,1,0.24489795918367
264,38490112054,BA,38490,SALVADOR,11,2054,"ESCOLA MUNICIPAL DE SÃO MARCOS","RUA SÃO MARCOS, 273 - ZONA URBANA","SÃO MARCOS",41630160,4,"Rua São Marcos",273,Salvador,41253100,"São Marcos",here_geocoder,-12.9244465,-38.440848,2046.7457674115,4,3,0.31707317073171
265,38490112062,BA,38490,SALVADOR,11,2062,"COLÉGIO ESTADUAL ERALDO TINOCO","RUA 03 QUADRA G - ZONA URBANA","SETE DE ABRIL",41385370,15
266,38490112070,BA,38490,SALVADOR,11,2070,"ESCOLA MANOEL CLEMENTE FERREIRA","RUA SÃO JOSÉ S/N - ZONA URBANA","VILA CANÁRIA",41390365,5,"Rua São José",,Salvador,41390365,"Vila Canária",here_geocoder,-12.9124199,-38.44454,1764.4887965919,1,3,0.25581395348837
267,38490112089,BA,38490,SALVADOR,11,2089,"ESPECIAL CENTRO SOCIAL URBANO DE CASTELO BRANCO","RUA A, 3. ETAPA DE CASTELO BRANCO - ZONA URBANA","CASTELO BRANCO (3A ETAPA)",41320010,1,"Rua Santa Luzia de Castelo Branco",,Salvador,41320370,"Castelo Branco",google_maps,-12.9081625,-38.4356658,168.28065647645,2,2,0.37142857142857
268,38490112097,BA,38490,SALVADOR,11,2097,"ESCOLA MUNICIPAL CLÉRISTON ANDRADE","RUA DIRETA DE SÃO MARCOS S/N - ZONA URBANA","SÃO MARCOS",41253160,13,"Rua São Marcos",853,Salvador,41253281,"São Marcos",google_maps,-12.9246741,-38.4402747,-1,2,1,0.25490196078431
269,38490112100,BA,38490,SALVADOR,11,2100,"ESPECIAL ESCOLA MUNICIPAL ROBERTO CORREIA","RUA JAIME VIEIRA LIMA, S/N - ZONA URBANA","PAU DA LIMA",41235000,1,"Rua Jayme Vieira Lima",,Salvador,41235000,"Pau da Lima",here_geocoder,-12.91765,-38.44274,725.27721738429,1,3,0.40816326530612
270,38490112119,BA,38490,SALVADOR,11,2119,"ESPECIAL ESCOLA DE 1. GRAU DEPUTADO ROGÉRIO REGO","RUA LUCIANO GOMES S/N - ZONA URBANA","JARDIM CAJAZEIRA",41230350,1,"Rua Luciano Gomes",,Salvador,41230350,"Jardim Cajazeiras",here_geocoder,-12.91655,-38.44957,2674.8778128683,2,3,0.34
271,38490112127,BA,38490,SALVADOR,11,2127,"ESPECIAL ESCOLA ALAN KARDEC DE PIRAJÁ","RUA MARECHAL DEODORO, S/N - ZONA URBANA","PAU DA LIMA",41235120,1,"Rua Marechal Deodoro",,Salvador,,"Pau da Lima",google_maps,-12.9188018,-38.4450028,2225.5649891443,2,3,0.41666666666667
272,38490112135,BA,38490,SALVADOR,11,2135,"COLÉGIO ESTADUAL DE PAU DA LIMA","RUA ISMAR MARTINS, 40 - ZONA URBANA","PAU DA LIMA",41235010,7,"Rua Ismar Araújo",,Salvador,41247,"Pau da Lima",google_maps,-12.9159075,-38.4426985,-1,1,1,0.29545454545455
273,38490112143,BA,38490,SALVADOR,11,2143,"COLÉGIO ESTADUAL FILADÉLFIA","RUA SÃO PEDRO, N 8 - ZONA URBANA","VILA CANÁRIA",41390000,2,"Rua São Pedro",2,Salvador,41390000,"Vila Canária",here_geocoder,-12.91138,-38.44274,3088.9197752783,1,3,0.25581395348837
274,3849011228,BA,38490,SALVADOR,1,1228,"ESCOLA SANTA TEREZINHA","LGO. DO CHAME-CHAME - ZONA URBANA",CHAME-CHAME,40155510,3,"Avenida Centenário",2883,Salvador,40155150,Chame-Chame,google_maps,-13.0060134,-38.5228971,-1,2,1,0.16279069767442
275,3849011350,BA,38490,SALVADOR,1,1350,"ESCOLA DE ADMINISTRAÇÃO DA UFBA","RUA REITOR MIGUEL CALMON, S/Nº - ZONA URBANA",CANELA,40110100,14,"Avenida Reitor Miguel Calmon",,Salvador,40110100,Canela,here_geocoder,-12.9957499,-38.52287,2838.328469928,1,3,0.36734693877551
276,3849011430,BA,38490,SALVADOR,1,1430,"ASSOCIAÇÃO CIVIL CASA D'ITÁLIA","AV. SETE DE SETEMBRO 1238 - ZONA URBANA","CAMPO GRANDE",40080121,5,"Avenida Sete de Setembro",1238,Salvador,40080001,"Campo Grande",google_maps,-12.9859113,-38.5202329,3431.4185963218,3,3,0.3
277,3849011449,BA,38490,SALVADOR,1,1449,"ASSOCIAÇÃO CULTURAL BRASIL ESTADOS UNIDOS - ACBEU","AV. SETE DE SETEMBRO 1883 - ZONA URBANA",VITÓRIA,40080002,12,"Avenida Sete de Setembro",1883,Salvador,40080002,Vitória,google_maps,-12.9901319,-38.52427,4723.8860747066,3,2,0.32608695652174
278,3849011457,BA,38490,SALVADOR,1,1457,"COLÉGIO ESTADUAL ODORICO TAVARES","AV. SETE DE SETEMBRO S/N - ZONA URBANA",VITÓRIA,40080001,24,"Avenida Sete de Setembro",,Salvador,40080001,Vitória,here_geocoder,-12.98586,-38.51985,1062.1845667947,3,2,0.33333333333333
279,3849011619,BA,38490,SALVADOR,1,1619,"ESPECIAL COLÉGIO ESTADUAL DEPUTADO MANOEL NOVAIS","AV. ARAÚJO PINHO 30 - ZONA URBANA",CANELA,40110150,1,"Avenida Araújo Pinho",30,Salvador,40110150,Canela,here_geocoder,-12.990283,-38.5206487,2530.9442811687,1,3,0.30769230769231
280,3849011627,BA,38490,SALVADOR,1,1627,"ESPECIAL COLÉGIO ESTADUAL ODORICO TAVARES","AV. SETE DE SETEMBRO S/N - ZONA URBANA",VITÓRIA,40080002,1,"Avenida Sete de Setembro",2009,Salvador,40080002,Vitória,google_maps,-12.991045,-38.524959,362.17355826368,3,1,0.33333333333333
281,3849011635,BA,38490,SALVADOR,1,1635,"ESPECIAL PAVILHÃO DE AULAS DO CANELA - UFBA","RUA REITOR MIGUEL CALMON, S/N - ZONA URBANA",CANELA,40110100,1,"Avenida Reitor Miguel Calmon",,Salvador,40110100,Canela,here_geocoder,-12.9957499,-38.52287,2838.328469928,1,3,0.38297872340426
282,3849011643,BA,38490,SALVADOR,1,1643,"ESPECIAL ESCOLA DE BELAS ARTES","AV. ARAÚJO PINHO, 212 - ZONA URBANA",CANELA,40110150,1,"Avenida Araújo Pinho",212,Salvador,40110150,Canela,here_geocoder,-12.99151,-38.52125,1352.5719591927,1,3,0.3
283,3849011651,BA,38490,SALVADOR,1,1651,"ESPECIAL ASSOC. CULTURAL BRASIL ESTADOS UNIDOS - ACBEU","AV SETE DE SETEMBRO, 1883 - ZONA URBANA",VITÓRIA,40080002,1,"Avenida Sete de Setembro",1883,Salvador,40080002,Vitória,google_maps,-12.9901319,-38.52427,4723.8860747066,4,2,0.48
284,3849011660,BA,38490,SALVADOR,1,1660,"ESPECIAL COLÉGIO SANTA CECÍLIA","RUA FLORIANÓPOLIS, 84 - ZONA URBANA","JARDIM BRASIL",40140320,1,"Rua Florianópolis",84,Salvador,40140320,Barra,google_maps,-13.0050122,-38.5274865,146.21723644276,1,3,0.38297872340426
285,3849011678,BA,38490,SALVADOR,1,1678,"ESPECIAL CABANA DA BARRA","AV. AFONSO CELSO, 01 - ZONA URBANA",BARRA,40140080,1,"Rua Afonso Celso",,Salvador,40140080,Barra,here_geocoder,-13.00866,-38.52948,2302.9223782478,1,3,0.35135135135135
286,3849011708,BA,38490,SALVADOR,1,1708,"ESPECIAL BAHIA BRITISH CLUB (CLUBE INGLÊS)","RUA BANCO DOS INGLESES, 20 - ZONA URBANA","CAMPO GRANDE",40080040,1,"Rua Banco dos Inglêses",20,Salvador,40080040,"Campo Grande",google_maps,-12.9871061,-38.5228545,447.07853648744,1,3,0.4
287,3849011724,BA,38490,SALVADOR,1,1724,"ESPECIAL FACULDADE DE DIREITO DA UFBA","RUA DA PAZ, S/N - ZONA URBANA",GRAÇA,40150140,1,"Rua da Paz",,Salvador,40150140,Graça,here_geocoder,-12.9976,-38.52217,163.3585758318,2,3,0.3030303030303
288,3849011740,BA,38490,SALVADOR,1,1740,"ESPECIAL ESCOLA SANTA TEREZINHA","LARGO DO CHAME-CHAME - ZONA URBANA",CHAME-CHAME,40157510,1
289,3849011767,BA,38490,SALVADOR,1,1767,"ASSOCIAÇÃO ATLÉTICA DA BAHIA","RUA BARÃO DE ITAPUÃ, N 218 - ZONA URBANA",BARRA,40140160,14,"Rua Barão de Itapoan",218,Salvador,40140060,Barra,google_maps,-13.005067,-38.5310522,1058.7802489333,1,3,0.46666666666667
290,3849011775,BA,38490,SALVADOR,1,1775,"ESPECIAL ASSOCIAÇÃO ATLÉTICA DA BAHIA","RUA BARÃO DE ITAPUÃ, N 218 - ZONA URBANA",BARRA,40140160,2,"Rua Barão de Itapoan",218,Salvador,40140060,Barra,google_maps,-13.005067,-38.5310522,1058.7802489333,1,3,0.46666666666667
291,3849011783,BA,38490,SALVADOR,1,1783,"ESCOLA MUNICIPAL CASA DA AMIZADE","RUA QUINTINO DE CARVALHO, 277 - ZONA URBANA",ONDINA,40155280,8,"Rua Quintino de Carvalno",277,Salvador,40155280,Ondina,here_geocoder,-13.0025104,-38.5178695,903.8188740667,1,3,0.51063829787234
292,3849011791,BA,38490,SALVADOR,1,1791,"ESPECIAL ESCOLA MUNICIPAL CASA DA AMIZADE","RUA QUINTINO DE CARVALHO, 277 - ZONA URBANA",ONDINA,40155280,1,"Rua Quintino de Carvalno",277,Salvador,40155280,Ondina,here_geocoder,-13.0025104,-38.5178695,903.8188740667,1,3,0.51063829787234
293,3849011805,BA,38490,SALVADOR,1,1805,"COLÉGIO DO SS SACRAMENTO - SACRAMENTINAS","AV LEOVIGILDO FILGUEIRAS, N 1211 - ZONA URBANA",GARCIA,40100000,13,"Avenida Leovigildo Filgueiras",,Salvador,40100000,Garcia,here_geocoder,-12.99118,-38.51829,1455.2998973589,2,2,0.52727272727273
294,3849011813,BA,38490,SALVADOR,1,1813,"COLÉGIO ANTÔNIO VIEIRA","AV. LEOVIGILDO FILGUEIRAS 683 - ZONA URBANA",GARCIA,40100000,24,"Avenida Leovigildo Filgueiras",683,Salvador,40100000,Garcia,google_maps,-12.992974,-38.515102,1922.9007809468,1,3,0.41666666666667
295,3849011821,BA,38490,SALVADOR,1,1821,"CENTRO EDUCACIONAL EDGARD SANTOS","RUA PREDILIANO PITA S/N - ZONA URBANA",GARCIA,40100200,13,"Rua Prediliano Pitta",,Salvador,40100200,Garcia,here_geocoder,-12.9936,-38.5117199,737.02970445974,1,2,0.45238095238095
296,3849011830,BA,38490,SALVADOR,1,1830,"ESPECIAL COLEGIO DO SS SACRAMENTO - SACRAMENTINAS","AV LEOVIGILDO FILGUEIRAS , N 1211 - ZONA URBANA",GARCIA,40100000,1,"Avenida Leovigildo Filgueiras",,Salvador,40100000,Garcia,here_geocoder,-12.99118,-38.51829,1455.2998973589,2,2,0.52727272727273
297,3849011848,BA,38490,SALVADOR,1,1848,"ESPECIAL COLEGIO ANTONIO VIEIRA","AVENIDA LEOVIGILDO FILGUEIRAS 683 - ZONA URBANA",GARCIA,40100000,1,"Avenida Leovigildo Filgueiras",683,Salvador,40100000,Garcia,google_maps,-12.992974,-38.515102,1922.9007809468,1,3,0.55769230769231
298,3849011856,BA,38490,SALVADOR,1,1856,"ESCOLA POLITÉCNICA DA UFBA","RUA PROFESSOR ARISTIDES NOVIS, N 02 - ZONA URBANA",FEDERAÇÃO,40210910,13,"Rua Professor Aristídes Novis",2,Salvador,40210630,Ondina,google_maps,-12.9996338,-38.5103015,3777.8318030266,1,3,0.46551724137931
299,3849011864,BA,38490,SALVADOR,1,1864,"COLÉGIO NOSSA SENHORA DAS MERCÊS","AVENIDA SETE DE SETEMBRO, N 1105 - ZONA URBANA",POLITEAMA,40060000,5,"Avenida Sete de Setembro",1105,Salvador,40060000,Centro,here_geocoder,-12.9855973,-38.5191117,280.72110488714,1,3,0.45283018867925
300,3849011872,BA,38490,SALVADOR,1,1872,"ESCOLA  MUNICIPAL HILDETE LOMANTO","RUA PREDILIANO PITA 01 - ZONA URBANA",GARCIA,40100200,11,"Rua Prediliano Pitta",,Salvador,40100200,Garcia,here_geocoder,-12.9936,-38.5117199,737.02970445974,1,2,0.46341463414634
301,3849011880,BA,38490,SALVADOR,1,1880,"ESPECIAL ESCOLA MUNICIPAL HILDETE LOMANTO","RUA PREDILIANO PITA, 01 - ZONA URBANA",GARCIA,40100200,1,"Rua Prediliano Pitta",,Salvador,40100200,Garcia,here_geocoder,-12.9936,-38.5117199,737.02970445974,1,2,0.46341463414634
302,3849011899,BA,38490,SALVADOR,1,1899,"FACULDADE DE ARQUITETURA DA UFBA","RUA CAETANO MOURA 121 - ZONA URBANA",FEDERAÇÃO,40210905,12,"Rua Caetano Moura",121,Salvador,40210340,Federação,google_maps,-12.9976721,-38.5082362,2915.0878030754,1,3,0.37777777777778
303,3849011902,BA,38490,SALVADOR,1,1902,"ESPECIAL FACULDADE DE ARQUITETURA DA UFBA","RUA CAETANO MOURA, 121 - ZONA URBANA",FEDERAÇÃO,40210905,1,"Rua Caetano Moura",121,Salvador,40210340,Federação,google_maps,-12.9976721,-38.5082362,2915.0878030754,1,3,0.37777777777778
304,38490121252,BA,38490,SALVADOR,12,1252,"ESCOLA ROTARY","LADEIRA DO ABAETÉ S/N - ZONA URBANA",ITAPUÃ,41610525,25,"Ladeira do Abaeté",,Salvador,41610,Itapuã,google_maps,-12.9480998,-38.3615228,1361.602282587,1,3,0.42857142857143
305,38490121260,BA,38490,SALVADOR,12,1260,"ESCOLA ÔMEGA","RUA GILBERTO FREIRE, QD R, LOTE 3, S/N - ZONA URBANA","STELLA MARIS",41770050,12,"Rua Gilberto Freyre 3",3,Salvador,41600590,,arcgis_online,-12.938843870391,-38.333241927693,-1,1,1,0.33333333333333
306,38490121279,BA,38490,SALVADOR,12,1279,"ESPECIAL COLÉGIO MARIZIA MAIOR","ALAMEDA PRAIA DE GUARATUBA, S/N - ZONA URBANA","STELLA MARIS",41600270,1,"Alameda Praia de Guaratuba",,Salvador,41600270,"Stella Maris",here_geocoder,-12.93487,-38.34148,2012.8396552891,2,3,0.47272727272727
307,38490121287,BA,38490,SALVADOR,12,1287,"COLEGIO ESTADUAL VISCONDE DE MAUÁ","AV ALIOMAR BALEEIRO, S/N - ZONA URBANA","SÃO CRISTÓVÃO",41510010,7,"Avenida Aliomar Baleeiro",,Salvador,41510010,"São Cristóvão",here_geocoder,-12.91074,-38.35748,2257.5241993512,2,2,0.42857142857143
308,38490121295,BA,38490,SALVADOR,12,1295,"ESCOLA BRIGADEIRO EDUARDO GOMES","RUA LAURO DE FREITAS 1 - ZONA URBANA","SÃO CRISTÓVÃO",41500190,7,"Rua Lauro de Freitas",1,Salvador,41500190,"São Cristóvão",here_geocoder,-12.91036,-38.3516,3343.6541252476,1,3,0.4
309,38490121309,BA,38490,SALVADOR,12,1309,"COLÉGIO ESTADUAL JOSÉ AUGUSTO TOURINHO DANTAS","FAZENDA CASSANGE KM 2 - ZONA URBANA","SÃO CRISTÓVÃO",40020000,14,"Rua São Cristóvão",,Salvador,40220370,"Engenho Velho da Federação",here_geocoder,-12.9993,-38.49353,-1,3,1,0.3265306122449
310,38490121317,BA,38490,SALVADOR,12,1317,"ESCOLA MARECHAL MASCARENHAS DE MORAES","AV. DORIVAL CAYMMI S/N VILA DOS EX-COMBATENTES - ZONA URBANA",ITAPUÃ,41635150,15,"Avenida Dorival Caymmi",,Salvador,41635150,Itapuã,here_geocoder,-12.93641,-38.36057,1274.0724463329,4,2,0.1969696969697
311,38490121325,BA,38490,SALVADOR,12,1325,"COLÉGIO MARIZIA MAIOR","ALAMEDA PRAIA DE GUARATUBA, S/N - ZONA URBANA","STELLA MARIS",41600270,14,"Alameda Praia de Guaratuba",,Salvador,41600270,"Stella Maris",here_geocoder,-12.93487,-38.34148,2012.8396552891,2,3,0.47272727272727
312,38490121333,BA,38490,SALVADOR,12,1333,"ESPECIAL COLÉGIO ROTARY","LADEIRA DO ABAETÉ, S/N - ZONA URBANA",ITAPUÃ,41610525,1,"Ladeira do Abaeté",,Salvador,41610,Itapuã,google_maps,-12.9480998,-38.3615228,1361.602282587,1,3,0.42857142857143
313,38490121341,BA,38490,SALVADOR,12,1341,"COLÉGIO LINCE - CENTRO DE ESTUDOS DIRIGIDOS LTDA","RUA DAS ACÁCIAS AMARELAS, N. 95 - ZONA URBANA","JARDIM DAS MARGARIDAS",41502310,5,"Rua Acácias Amarelas",59,Salvador,41502310,"Jardim das Margaridas",here_geocoder,-12.9000574,-38.3527546,75.885685121365,1,2,0.32307692307692
314,38490121350,BA,38490,SALVADOR,12,1350,"COLÉGIO ROTARY","LADEIRA DO ABAETÉ S/N - ZONA URBANA",ITAPUÃ,41610525,15,"Ladeira do Abaeté",,Salvador,41610,Itapuã,google_maps,-12.9480998,-38.3615228,1361.602282587,1,3,0.42857142857143
315,38490121368,BA,38490,SALVADOR,12,1368,"ESCOLA MUNICIPAL DA LAGOA DO ABAETÉ","TRAVESSA PAULO AFONSO BAQUEIRO, N 17 - ZONA URBANA","NOVA BRASÍLIA DE ITAPUÃ",41630230,8,"Travessa Paulo Afonso Baqueiro",17,Salvador,41611230,Itapuã,here_geocoder,-12.9381301,-38.3583813,1804.6878376782,1,3,0.41095890410959
316,38490121376,BA,38490,SALVADOR,12,1376,"COLÉGIO ESTADUAL GOVERNADOR LOMANTO JUNIOR","RUA PROFESSOR SOUZA BRITO S/N - ZONA URBANA",ITAPUÃ,41640380,28,"Rua Professor Souza Brito",s/n,Salvador,41301110,Itapuã,google_maps,-12.950509,-38.362552,-1,2,1,0.51020408163265
317,38490121384,BA,38490,SALVADOR,12,1384,"ESCOLA MUNICIPAL PEDRO VELOSO GORDILHO","RUA OSVALDO GORDILHO 10 - ZONA URBANA","SÃO CRISTÓVÃO",41510010,5,"Travessa Osvaldo Gordilho",10,Salvador,41510396,"São Cristóvão",here_geocoder,-12.9118099,-38.35095,10.038931163761,2,2,0.27450980392157
318,38490121392,BA,38490,SALVADOR,12,1392,"COLÉGIO ESTADUAL PROFESSORA HELENA MATHEUS","RUA DA ADUTORA S/N - ZONA URBANA","SÃO CRISTÓVÃO",41510771,13,"Rua Adutora",,Salvador,41510771,,arcgis_online,-12.918814668806,-38.350921132477,-1,4,1,0.23913043478261
319,38490121406,BA,38490,SALVADOR,12,1406,"ESCOLA MUNICIPAL BARBOSA ROMEU","RUA SÃO PAULO S/N - ZONA URBANA","SÃO CRISTÓVÃO",41500110,11,"Rua São Salvador",,Salvador,41510090,"São Cristóvão",google_maps,-12.9124696,-38.3525804,-1,3,1,0.26666666666667
320,38490121414,BA,38490,SALVADOR,12,1414,"ESCOLA MUNICIPAL DE SÃO CRISTOVÃO","RUA POÇO VERDE, S/N - CONJ. HABITACIONAL SÃO CRISTOVÃO - ZONA URBANA","SÃO CRISTÓVÃO",41500000,4
321,38490121422,BA,38490,SALVADOR,12,1422,"ESCOLA MUNICIPAL DO PARQUE SÃO CRISTOVÃO JOÃO FERNANDES CUNHA","RUA DR. ÁLVARO PONTES BAHIA, QUADRA 24 - ZONA URBANA","PARQUE SÃO CRISTÓVÃO",41500610,6,"Rua Doutor Álvaro Pontes Bahia",,Salvador,41510229,,google_maps,-12.9088003,-38.36692,-1,1,1,0.31506849315068
322,38490121430,BA,38490,SALVADOR,12,1430,"COLÉGIO ESTADUAL 15 DE NOVEMBRO","RUA LAURO DE FREITAS, 13 - ZONA URBANA","SÃO CRISTÓVÃO",41500190,6,"Rua Lauro de Freitas",13,Salvador,41500190,"São Cristóvão",google_maps,-12.9100591,-38.3534793,3343.3083586279,1,3,0.3921568627451
323,38490121449,BA,38490,SALVADOR,12,1449,"CRAS - CENTRO DE REFERENCIA DA ASSISTÊNCIA SOCIAL","RUA PRAIAS DO BRASIL, N 1, PRAÇA IOLANDA PIRES - ZONA URBANA","SÃO CRISTÓVÃO",40243000,1,"Praça Iolanda Píres",,Salvador,,"São Cristóvão",google_maps,-12.9181921,-38.3506238,539.50488661067,1,1,0.22222222222222
324,38490121457,BA,38490,SALVADOR,12,1457,"ESPECIAL ESCOLA MUNICIPAL BARBOSA ROMEU","RUA SÃO PAULO, S/Nº - ZONA URBANA","SÃO CRISTÓVÃO",41500110,1,"Rua São Paulo",,Salvador,41510190,"São Cristóvão",here_geocoder,-12.91167,-38.34855,872.62922179657,3,2,0.23404255319149
325,38490121465,BA,38490,SALVADOR,12,1465,"ESPECIAL ESCOLA MUNICIPAL DA LAGOA DO ABAETÉ","TRAVESSA PAULO AFONSO BAQUEIRO, N 17 - ZONA URBANA","NOVA BRASÍLIA DE ITAPUÃ",41706050,1,"Travessa Paulo Afonso Baqueiro",17,Salvador,41611230,Itapuã,here_geocoder,-12.9381301,-38.3583813,1804.6878376782,1,3,0.41095890410959
326,38490131015,BA,38490,SALVADOR,13,1015,"ESCOLA NOSSA SENHORA DA LUZ","RUA CEARÁ, Nº 852 - ZONA URBANA",PITUBA,41830451,10,"Rua Ceará",852,Salvador,41830451,Pituba,here_geocoder,-13.00288,-38.4594,794.30564418352,1,3,0.27027027027027
327,38490131023,BA,38490,SALVADOR,13,1023,"COLÉGIO SARTRE-COC - UNIDADE NOBEL","RUA JOÃO VARELA, 184 - ZONA URBANA",ITAIGARA,41815070,15,"Rua João Varela",184,Salvador,41815070,Itaigara,google_maps,-12.99102,-38.462683,848.86939551647,1,3,0.39024390243902
328,38490131031,BA,38490,SALVADOR,13,1031,"ACBEU - ASSOCIAÇÃO CULTURAL BRASIL ESTADOS UNIDOS","RUA PERNAMBUCO, Nº 568 - ZONA URBANA",PITUBA,41830390,13,"Rua Pernambuco",568,Salvador,41830390,Pituba,google_maps,-13.0011112,-38.4583556,722.56794871402,1,3,0.34146341463415
329,38490131058,BA,38490,SALVADOR,13,1058,"ESCOLA PEDRO CALMON","RUA GENERAL BRÁULIO GUIMARÃES,  S/N - ZONA URBANA","JARDIM ARMAÇÃO",41750000,16,"Rua General Bráulio Guimarães",,Salvador,41750000,"Jardim Armação",here_geocoder,-12.98671,-38.43831,245.36861915069,1,3,0.484375
330,38490131066,BA,38490,SALVADOR,13,1066,"COLÉGIO SÃO PAULO","RUA LUIZ PORTELA DA SILVA, N 628 - ZONA URBANA",ITAIGARA,41815290,16,"Rua Luiz Portela da Silva",628,Salvador,41815290,Itaigara,here_geocoder,-12.99149,-38.46942,2325.868355591,1,3,0.48076923076923
331,38490131074,BA,38490,SALVADOR,13,1074,"ESCOLA RAPHAEL SERRAVALLE","RUA GUILLARD MUNIZ, S/N - ZONA URBANA",PITUBA,41810110,19,"Rua Guillard Muniz",,Salvador,41810110,Pituba,here_geocoder,-12.9915,-38.45763,922.4484548594,1,3,0.4390243902439
332,38490131082,BA,38490,SALVADOR,13,1082,"ESCOLA MUNICIPAL LUIZA MAHIM","RUA GENERAL BRÁULIO GUIMARÃES, N 471  - ZONA URBANA","JARDIM ARMAÇÃO",41750290,6,"Rua General Bráulio Guimarães",471,Salvador,41750,Armação,google_maps,-12.9866338,-38.4383141,341.96613565939,1,3,0.46969696969697
333,38490131090,BA,38490,SALVADOR,13,1090,"COLÉGIO SARTRE COC","RUA REITOR MACEDO COSTA, 180 - ZONA URBANA",ITAIGARA,41815130,13,"Rua Reitor Macedo Costa",108,Salvador,41815150,Itaigara,google_maps,-12.993836,-38.4708689,762.68517009183,1,3,0.47916666666667
334,38490131104,BA,38490,SALVADOR,13,1104,"ESCOLA ESTADUAL THALES DE AZEVEDO","RUA ADELAIDE FERNANDES DA COSTA, S/N - ZONA URBANA","COSTA AZUL",41760040,14,"Rua Adelaide Fernandes da Costa",,Salvador,41760040,"Costa Azul",here_geocoder,-12.99634,-38.44972,42.573352945118,1,2,0.53448275862069
335,38490131120,BA,38490,SALVADOR,13,1120,"COLÉGIO OFICINA","RUA MIGUEL NAVARRO Y CANIZARES, N 423 - ZONA URBANA",PITUBA,41820210,14,"Rua Miguel Navarro Y Cañizares",423,Salvador,41810215,Pituba,google_maps,-12.9920073,-38.453631,1526.025013209,1,3,0.50909090909091
336,38490131139,BA,38490,SALVADOR,13,1139,"COLÉGIO INTEGRAL","RUA FERNANDO MENEZES DE GÓES, 570 - ZONA URBANA",PITUBA,41810700,10,"Rua Fernando Menezes de Góes",570,Salvador,41810700,Pituba,here_geocoder,-12.9994719,-38.4495503,119.74816049327,2,3,0.55769230769231
337,38490131147,BA,38490,SALVADOR,13,1147,"ESCOLA GIRASSOL","RUA SÍLVIO VALENTE, Nº 384 - ZONA URBANA",ITAIGARA,41815370,14,"Rua Sílvio Valente",389,Salvador,41815370,Itaigara,here_geocoder,-12.9967579,-38.4625881,1834.3027444914,1,3,0.39583333333333
338,38490131155,BA,38490,SALVADOR,13,1155,"DAMÁSIO EDUCACIONAL","RUA ESPÍRITO SANTO, N 575 - ZONA URBANA",PITUBA,41830120,12,"Rua Espírito Santo",575,Salvador,41830120,Pituba,here_geocoder,-13.0047511,-38.4620417,1460.6753646761,3,3,0.43181818181818
339,38490131180,BA,38490,SALVADOR,13,1180,"ESPECIAL ESCOLA GIRASSOL","RUA SÍLVIO VALENTE 384 - ZONA URBANA",ITAIGARA,41815370,1,"Rua Silvio Valente",384,Salvador,41815370,Itaigara,google_maps,-12.9967362,-38.4625627,1906.8784682826,1,3,0.38636363636364
340,38490131198,BA,38490,SALVADOR,13,1198,"ESPECIAL COLÉGIO SARTRE-COC - UNIDADE NOBEL","RUA JOÃO VARELA, N 184 - ZONA URBANA",ITAIGARA,41815070,1,"Rua João Varela",184,Salvador,41815070,Itaigara,google_maps,-12.99102,-38.462683,848.86939551647,1,3,0.37209302325581
341,38490131201,BA,38490,SALVADOR,13,1201,"ESPECIAL ESCOLA MUNICIPAL LUIZA MAHIM","RUA GENERAL BRÁULIO GUIMARÃES, 471 - ZONA URBANA","JARDIM ARMAÇÃO",41750290,1,"Rua General Bráulio Guimarães",471,Salvador,41750,Armação,google_maps,-12.9866338,-38.4383141,341.96613565939,1,3,0.484375
342,38490131210,BA,38490,SALVADOR,13,1210,"ESPECIAL COLÉGIO SÃO PAULO","RUA LUIZ PORTELA DA SILVA 628 - ZONA URBANA",ITAIGARA,41815290,1,"Rua Luiz Portela da Silva",628,Salvador,41815290,Itaigara,here_geocoder,-12.99149,-38.46942,2434.1780871181,1,3,0.5
343,38490131228,BA,38490,SALVADOR,13,1228,"ESPECIAL ESCOLA RAPHAEL SERRAVALE","RUA GUILLARD MUNIZ S/N - ZONA URBANA",PITUBA,41810110,1,"Rua Guillard Muniz",,Salvador,41810110,Pituba,here_geocoder,-12.9915,-38.45763,922.4484548594,1,3,0.4390243902439
344,38490131236,BA,38490,SALVADOR,13,1236,"ESPECIAL COLÉGIO SARTRE","RUA DOUTOR ANTÔNIO MONTEIRO 7 - ZONA URBANA",ITAIGARA,41840200,1,"Rua Doutor Antônio Monteiro",6,Salvador,41815130,Itaigara,here_geocoder,-12.9939652,-38.4714772,1465.8323668905,2,3,0.54901960784314
345,38490131244,BA,38490,SALVADOR,13,1244,"ESPECIAL COLÉGIO OFICINA","RUA MIGUEL NAVARRO Y CANIZARES, 423 - ZONA URBANA",PITUBA,41820210,1,"Rua Miguel Navarro Y Cañizares",423,Salvador,41810215,Pituba,google_maps,-12.9910089,-38.4537644,1971.6834699885,1,3,0.52830188679245
346,38490131260,BA,38490,SALVADOR,13,1260,"COLÉGIO ANCHIETA","PRAÇA PADRE ANCHIETA, N 126 - ZONA URBANA",PITUBA,41810830,15,"Praça Padre Anchieta",126,Salvador,41810830,Pituba,google_maps,-13.0018392,-38.452343,488.58203211116,1,3,0.4
347,38490131279,BA,38490,SALVADOR,13,1279,"ESCOLA ESTADUAL JOSÉ TOBIAS NETO","RUA RAIMUNDO MAGALDI, S/N - ZONA URBANA","COSTA AZUL",41760020,4,"Rua Doutor Raimundo Magaldi",,Salvador,41760020,"Costa Azul",here_geocoder,-12.99366,-38.44673,2018.6123223713,1,3,0.27659574468085
348,38490131295,BA,38490,SALVADOR,13,1295,"COLÉGIO ESTADUAL PROFESSOR CARLOS SANT'ANNA","RUA ALTO DOS COQUEIROS S/N  - ZONA URBANA","NORDESTE DE AMARALINA",40315170,13,"Rua Alto do Coqueiros",,Salvador,40255620,Brotas,here_geocoder,-12.98931,-38.47674,-1,1,1,0.35
349,38490131309,BA,38490,SALVADOR,13,1309,"ESPECIAL COLÉGIO CARLOS CORREA DE MENEZES SANT'ANNA II","RUA ALTO DOS COQUEIROS, S/N - ZONA URBANA","NORDESTE DE AMARALINA",40315170,1,"Rua Alto do Coqueiros",,Salvador,40255620,Brotas,here_geocoder,-12.98931,-38.47674,-1,1,1,0.35
350,38490131317,BA,38490,SALVADOR,13,1317,"COLÉGIO CARLOS CORREA DE MENEZES SANT'ANNA II","RUA PARÁ, S/N, BECO DA CULTURA - ZONA URBANA",PITUBA,40315170,19,"Rua Pará",,Salvador,,,google_maps,-13.0075427,-38.4673662,4562.468903803,1,2,0.1875
351,38490131325,BA,38490,SALVADOR,13,1325,"ESCOLA DE 1. GRAU SÁTIRO DIAS","RUA PARÁ 346 - ZONA URBANA",PITUBA,41830070,12,"Rua Pará",340,Salvador,41830070,Pituba,here_geocoder,-13.00802,-38.46705,460.81380009582,1,3,0.28125
352,38490131333,BA,38490,SALVADOR,13,1333,"ESPECIAL COLÉGIO ESTADUAL PROFESSOR CARLOS SANT'ANNA","RUA ALTO DOS COQUEIROS, S/N - ZONA URBANA","NORDESTE DE AMARALINA",40315170,1,"Rua Alto do Coqueiros",,Salvador,40255620,Brotas,here_geocoder,-12.98931,-38.47674,-1,1,1,0.35
353,38490131341,BA,38490,SALVADOR,13,1341,"ESPECIAL ESCOLA DE 1. GRAU SÁTIRO DIAS","RUA PARÁ 346 - ZONA URBANA",PITUBA,41830070,1,"Rua Pará",340,Salvador,41830070,Pituba,here_geocoder,-13.00802,-38.46705,460.81380009582,1,3,0.28125
354,38490141309,BA,38490,SALVADOR,14,1309,"SETOR DE TRANSPORTES DA SECRET. MEIO AMBIENTE DO ESTADO DA BAHIA-SEMA","AV ULISSES GUIMARÃES, 4590 - ZONA URBANA","SUSSUARANA VELHA",41213000,3,"Avenida Ulisses Guimarães",4590,Salvador,41213006,"Nova Sussuarana",here_geocoder,-12.9367961,-38.4378255,8995.3963505212,2,3,0.43333333333333
355,38490141317,BA,38490,SALVADOR,14,1317,"ESPECIAL ESCOLA MUNICIPAL DA ENGOMADEIRA","RUA DIREITA DA ENGOMADEIRA, S/N - ZONA URBANA",ENGOMADEIRA,41200050,2,"Rua da Engomadeira",,Salvador,41200005,Engomadeira,here_geocoder,-12.94938,-38.45829,-1,2,1,0.33333333333333
356,38490141325,BA,38490,SALVADOR,14,1325,"ESCOLA MUNICIPAL NOVO HORIZONTE","RUA ALBINO FERNANDES, S/N, FIM DE LINHA - ZONA URBANA","NOVO HORIZONTE",41217260,11,"Rua Albino Fernandes",s/n,Salvador,41218770,"Novo Horizonte",google_maps,-12.942832,-38.4383843,694.18470622783,2,2,0.3125
357,38490141333,BA,38490,SALVADOR,14,1333,"ESCOLA MUNICIPAL ÁLVARO DA FRANÇA ROCHA","RUA DIRETA DA ENGOMADEIRA, S/N - ZONA URBANA",ENGOMADEIRA,41200510,4,"Rua da Engomadeira",10,Salvador,41200005,Engomadeira,here_geocoder,-12.9502747,-38.4606648,-1,2,1,0.33962264150943
358,38490141341,BA,38490,SALVADOR,14,1341,"ESCOLA ESTADUAL CÉLIA MATA PIRES","RUA DIRETA DE SANTO INÁCIO, S/N - JARDIM SANTO INÁCIO - ZONA URBANA","MATA ESCURA",41230580,6,"Rua Direita de Santo Inácio",,Salvador,41231010,"Jardim Santo Inácio",here_geocoder,-12.92741,-38.46092,153.60055519966,1,2,0.34210526315789
359,38490141350,BA,38490,SALVADOR,14,1350,"ESPECIAL ESCOLA ESTADUAL MÁRCIA CARNEIRO MÉCCIA","RUA BENJAMIN ABDON S/N FIM DE LINHA - ZONA URBANA","MATA ESCURA",41225360,1,"Rua Benjamin Abdon",,Salvador,41219040,"Mata Escura",google_maps,-12.9379012,-38.4604802,891.97905230353,1,2,0.30508474576271
360,38490141368,BA,38490,SALVADOR,14,1368,"ESPECIAL ESCOLA MUNICIPAL JARDIM SANTO INÁCIO","PRAÇA SANTO INÁCIO, S/N, FIM DE LINHA - ZONA URBANA","JARDIM SANTO INÁCIO",41231015,1,"Praça Santo Inácio",,Salvador,41231015,"Jardim Santo Inacio",google_maps,-12.9298406,-38.4618966,282.96937410872,1,3,0.27536231884058
361,38490141392,BA,38490,SALVADOR,14,1392,"PRISIONAL - CONJUNTO PENAL FEMININO","RUA DIRETA DA MATA ESCURA, S/N, COMPLEXO PENITENCIÁRIO - ZONA URBANA","MATA ESCURA",41225190,1,"Rua Cardeal Avelar Brandão Villela",s/n,Salvador,41219600,"Mata Escura",google_maps,-12.9282275,-38.4555883,-1,2,1,0.22077922077922
362,38490141414,BA,38490,SALVADOR,14,1414,"ESCOLA ACELINO MAXIMINIANO DA ENCARNAÇÃO","RUA FLÁVIO CAVALCANTE, S/N - ZONA URBANA","SUSSUARANA VELHA",41214490,6,"Rua Flávio Cavalcante",,Salvador,41214490,Sussuarana,google_maps,-12.9296737,-38.4419757,305.18064774734,1,3,0.4
363,38490141422,BA,38490,SALVADOR,14,1422,"ESCOLA MUNICIPAL MANOEL FRANCISCO DO NASCIMENTO BRITO","RUA PRAIA DE IPANEMA, S/N - ZONA URBANA","SUSSUARANA VELHA",41230970,4,"Rua Praia de Ipanema",,Salvador,,Sussuarana,google_maps,-12.9309756,-38.4400462,77.94152422706,1,3,0.37735849056604
364,38490141430,BA,38490,SALVADOR,14,1430,"ESCOLA ESTADUAL HELENA MAGALHÃES","RUA DIRETA DO BEIRU, S/N - ZONA URBANA","TANCREDO NEVES",41205000,14,"Rua Direta de Tancredo Neves",32,Salvador,41205016,"Tancredo Neves",google_maps,-12.9423423,-38.44947,-1,1,1,0.56
365,38490141449,BA,38490,SALVADOR,14,1449,"DEPARTAMENTO DE CIÊNCIAS EXATAS E DA TERRA","RUA SILVEIRA MARTINS, 2555 - ZONA URBANA",CABULA,41150000,8,"Rua Silveira Martins",2555,Salvador,41150000,Cabula,here_geocoder,-12.9576465,-38.4539072,1494.8993572326,3,2,0.45454545454545
366,38490141457,BA,38490,SALVADOR,14,1457,"DEPARTAMENTO DE CIÊNCIAS DA VIDA - UNEB","RUA SILVEIRA MARTINS, 2555 - ZONA URBANA",CABULA,41150000,8,"Rua Silveira Martins",2555,Salvador,41150000,Cabula,here_geocoder,-12.9576465,-38.4539072,1494.8993572326,3,2,0.45454545454545
367,38490141465,BA,38490,SALVADOR,14,1465,"ESCOLA ESTADUAL MÁRCIA CARNEIRO MÉCCIA","RUA BENJAMIN ABDON, S/N, FIM DE LINHA - ZONA URBANA","MATA ESCURA",41225360,14,"Rua Benjamin Abdon",,Salvador,41219040,"Mata Escura",google_maps,-12.9379012,-38.4604802,891.97905230353,1,2,0.30508474576271
368,38490141473,BA,38490,SALVADOR,14,1473,"ESCOLA MUNICIPAL MARIA CONSTANÇA","RUA BENJAMIN ABDON, S/N, FIM DE LINHA - ZONA URBANA","JARDIM PAMPULHA",41225720,12,"Rua São Miguel do Jardim Pampulha",,Salvador,41219055,"Mata Escura",google_maps,-12.9387889,-38.4608433,1813.8860469678,1,2,0.42857142857143
369,38490141481,BA,38490,SALVADOR,14,1481,"ESPECIAL ESCOLA ESTADUAL CÉLIA MATA PIRES","RUA DIRETA DE SANTO INÁCIO S/N - ZONA URBANA","JARDIM SANTO INÁCIO",41230580,1,"Rua Direita de Santo Inácio",,Salvador,41231010,"Jardim Santo Inácio",here_geocoder,-12.92741,-38.46092,324.52849856305,2,3,0.40625
370,38490141503,BA,38490,SALVADOR,14,1503,"ESCOLA MUNICIPAL MAXIMINIANO DA ENCARNAÇÃO","RUA DIRETA DA MATA ESCURA, S/N - ZONA URBANA","MATA ESCURA",41225190,3,"Rua Direta Mata Escura",,Salvador,41225190,"Mata Escura",here_geocoder,-12.9356899,-38.46404,33.472995729274,3,2,0.41509433962264
371,38490141511,BA,38490,SALVADOR,14,1511,"ESPECIAL ESCOLA MUNICIPAL MAXIMINIANO DA ENCARNAÇÃO","RUA DIRETA DA MATA ESCURA, S/N - ZONA URBANA","MATA ESCURA",41225190,1,"Rua Direta Mata Escura",,Salvador,41225190,"Mata Escura",here_geocoder,-12.9356899,-38.46404,33.472995729274,3,2,0.41509433962264
372,38490141520,BA,38490,SALVADOR,14,1520,"ESCOLA MUNICIPAL JARDIM SANTO INÁCIO","PRAÇA SANTO INÁCIO, S/N, FIM DE LINHA - ZONA URBANA","JARDIM SANTO INÁCIO",41231015,1,"Praça Santo Inácio",,Salvador,41231015,"Jardim Santo Inacio",google_maps,-12.9298406,-38.4618966,282.96937410872,1,3,0.27536231884058
373,38490141538,BA,38490,SALVADOR,14,1538,"ESCOLA TERCEIRO MILÊNIO","RUA CARDEAL AVELAR BRANDÃO VILELA, N 39 - ZONA URBANA","MATA ESCURA",41219600,2,"Avenida Cardeal Avelar Brandão Vilela",16,Salvador,41219600,"Mata Escura",here_geocoder,-12.9301,-38.45708,2957.3904547991,2,3,0.44444444444444
374,38490141546,BA,38490,SALVADOR,14,1546,"CENTRO MUN. DE EDUCAÇÃO INFANTIL CECY ANDRADE","RUA FLÁVIO CAVALCANTE S/N - ZONA URBANA","SUSSUARANA VELHA",41214490,4,"Rua Flávio Cavalcante",,Salvador,41214490,Sussuarana,google_maps,-12.9296737,-38.4419757,305.18064774734,1,3,0.4
375,38490141554,BA,38490,SALVADOR,14,1554,"ESPECIAL ESCOLA ACELINO MAXIMIANO DA ENCARNAÇÃO","RUA FLÁVIO CAVALCANTE S/N - ZONA URBANA","SUSSUARANA VELHA",41214490,1,"Rua Flávio Cavalcante",,Salvador,41214490,Sussuarana,google_maps,-12.9296737,-38.4419757,305.18064774734,1,3,0.4
376,38490141562,BA,38490,SALVADOR,14,1562,"ESCOLA ESTADUAL PROFESSOR EDVALDO FERNANDES","RUA PARAIBA, S/N - ZONA URBANA","TANCREDO NEVES",41207310,11,"Rua Paraíba",,Salvador,,"Tancredo Neves",google_maps,-12.9488979,-38.4497435,2096.4489921326,1,3,0.23809523809524
377,38490141570,BA,38490,SALVADOR,14,1570,"ESCOLA PROFESSORA LEOVÍCIA ANDRADE","RUA CLÉRISTON ANDRADE S/N - ZONA URBANA",CALABETÃO,41227050,6,"Rua Clériston Andrade",,Salvador,41227050,Calabetão,here_geocoder,-12.93157,-38.46783,34.273370123964,1,3,0.44897959183673
378,38490141589,BA,38490,SALVADOR,14,1589,"ESCOLA ESTADUAL ZUMBI DOS PALMARES","RUA PARAIBA, 1389 - ZONA URBANA","TANCREDO NEVES",41207310,18,"Rua Paraíba",,Salvador,,"Tancredo Neves",google_maps,-12.9488979,-38.4497435,2096.4489921326,1,3,0.23255813953488
379,38490141597,BA,38490,SALVADOR,14,1597,"DEPARTAMENTO DE EDUCAÇÃO - UNEB","AV SILVEIRA MARTINS, N 2555 - ZONA URBANA",CABULA,41192010,9,"Rua Silveira Martins",2555,Salvador,41180,Cabula,google_maps,-12.9558613,-38.455077,1561.6435408705,2,2,0.36
380,38490141600,BA,38490,SALVADOR,14,1600,"DEPARTAMENTO DE CIÊNCIAS HUMANAS - UNEB","AV SILVEIRA MARTINS, N 2555 - ZONA URBANA",CABULA,41195001,13,"Rua Silveira Martins",2555,Salvador,41180,Cabula,google_maps,-12.9558613,-38.455077,2097.8599947827,2,3,0.36
381,38490141619,BA,38490,SALVADOR,14,1619,"ESCOLA MUNICIPAL DA ENGOMADEIRA","RUA DIREITA DA ENGOMADEIRA, S/N - ZONA URBANA",ENGOMADEIRA,41200050,6,"Rua da Engomadeira",,Salvador,41200005,Engomadeira,here_geocoder,-12.94938,-38.45829,-1,2,1,0.33333333333333
382,38490141627,BA,38490,SALVADOR,14,1627,"ESPECIAL ESCOLA ESTADUAL HELENA MAGALHÃES","RUA DIRETA DO BEIRU, S/N - ZONA URBANA","TANCREDO NEVES",41205000,1,"Rua Direta de Tancredo Neves",32,Salvador,41205016,"Tancredo Neves",google_maps,-12.9423423,-38.44947,-1,1,1,0.56
383,38490141635,BA,38490,SALVADOR,14,1635,"ESCOLA MUNICIPAL MARIA DA CONCEIÇÃO SANTIAGO IMBASSAY","ESTRADA DAS BARREIRAS, S/N - ZONA URBANA","TANCREDO NEVES",41225160,8,"Estrada das Barreiras",,Salvador,41195660,Barreiras,here_geocoder,-12.94097,-38.45261,2691.0378533763,2,3,0.40384615384615
384,38490141643,BA,38490,SALVADOR,14,1643,"ESCOLA ESTADUAL SÃO DANIEL COMBONI","AVENIDA ULISSES GUIMARÃES, 104 - ZONA URBANA","SUSSUARANA VELHA",41214020,7,"Avenida Ulisses Guimaraes",,Salvador,41213006,Sussuarana,here_geocoder,-12.93667,-38.4533,1518.4053925859,2,2,0.40677966101695
385,38490141651,BA,38490,SALVADOR,14,1651,"INTERNAÇÃO - COMUNIDADE DE ATENDIMENTO SOCIOEDUCATIVO DE SALVADOR CASE","AV. GUANABARA, 70 - ZONA URBANA","TANCREDO NEVES",41205080,1,"Avenida Guanabara",70,Salvador,41205080,"Beiru/Tancredo Neves",here_geocoder,-12.9450555,-38.4507612,538.32848454374,1,3,0.25581395348837
386,38490141660,BA,38490,SALVADOR,14,1660,"ESCOLA MUNICIPAL DO CALABETÃO","RUA CLÉRISTON ANDRADE S/N - ZONA URBANA",CALABETÃO,41227340,5,"Rua Clériston Andrade",,Salvador,,Calabetão,here_geocoder,-12.93157,-38.46783,129.02388924301,1,3,0.44897959183673
387,38490141678,BA,38490,SALVADOR,14,1678,"ESCOLA ESTADUAL PROFESSOR DORIVAL PASSOS","AVENIDA CARDEAL DOM AVELAR BRANDÃO VILLELA, S/N - ZONA URBANA","MATA ESCURA",41225190,7,"Avenida Cardeal Avelar Brandão Villela",,Salvador,,"Mata Escura",google_maps,-12.9312522,-38.457697,507.595692205,2,2,0.54929577464789
388,38490141686,BA,38490,SALVADOR,14,1686,"ESCOLA MUNICIPAL CRIANÇA FELIZ","CONJUNTO HABITACIONAL METRÔ I S/N - ZONA URBANA",CALABETÃO,41290001,2
389,38490141694,BA,38490,SALVADOR,14,1694,"ESCOLA MUNICIPAL PROFESSORA ANFRÍSIA SANTIAGO","ESTRADA DAS BARREIRAS S/N - ZONA URBANA",BARREIRAS,41195001,4,"Estrada das Barreiras",,Salvador,41195001,Barreiras,here_geocoder,-12.9461099,-38.46089,-1,3,1,0.4468085106383
390,38490141708,BA,38490,SALVADOR,14,1708,"ESPECIAL ESCOLA PROFESSORA LEOVÍCIA ANDRADE","RUA CLÉRISTON ANDRADE S/N - ZONA URBANA",CALABETÃO,41227050,1,"Rua Clériston Andrade",,Salvador,41227050,Calabetão,here_geocoder,-12.93157,-38.46783,34.273370123964,1,3,0.44897959183673
391,38490141716,BA,38490,SALVADOR,14,1716,"PRISIONAL - UED - UNIDADE ESPECIAL DISCIPLINAR","RUA DIRETA DA MATA ESCURA, S/N, COMPLEXO PENITENCIÁRIO - ZONA URBANA","MATA ESCURA",41225190,1,"Rua Cardeal Avelar Brandão Villela",s/n,Salvador,41219600,"Mata Escura",google_maps,-12.9282275,-38.4555883,-1,2,1,0.22077922077922
392,38490141724,BA,38490,SALVADOR,14,1724,"PRISIONAL - CADEIA PÚBLICA DE SALVADOR","RUA DIRETA DE MATA ESCURA, S/N, COMPLEXO PENITENCIÁRIO - ZONA URBANA","MATA ESCURA",41225190,1,"Rua Direta Mata Escura",,Salvador,41225190,"Mata Escura",here_geocoder,-12.9356899,-38.46404,-1,2,1,0.28571428571429
393,38490141732,BA,38490,SALVADOR,14,1732,"ESCOLA ESTADUAL NOVA DE SUSSUARANA","AV ULISSES GUIMARÃES - RUA HAROLDO CAÍNO, S/N - ZONA URBANA","SUSSUARANA VELHA",41213000,4,"Avenida Ulisses Guimaraes",,Salvador,41213006,Sussuarana,here_geocoder,-12.93667,-38.4533,1518.4053925859,2,2,0.30769230769231
394,38490141740,BA,38490,SALVADOR,14,1740,"ESCOLA ESTADUAL IGNACIO LUNELLI","RUA CRISTIANE N 06 - ZONA URBANA","TANCREDO NEVES",41207310,4,"Rua Cristiane",,Salvador,41210040,"Tancredo Neves",google_maps,-12.9472219,-38.4499334,1055.406278793,1,3,0.28888888888889
395,38490141759,BA,38490,SALVADOR,14,1759,"ESCOLA SANTA EDWIRGENS - ANEXO","R PAULO HÉLIO DE CARVALHO, 29, ATRÁS DA IGREJA UNIVERSAL - ZONA URBANA","MATA ESCURA",41219065,2,"Rua Paulo Hélio Carvalho",29,Salvador,41219065,"Mata Escura",here_geocoder,-12.9370971,-38.4608513,163.16784373569,1,3,0.30487804878049
396,38490141767,BA,38490,SALVADOR,14,1767,"ESCOLA MUNICIPAL ERALDO TINOCO","AV. ULYSSES GUIMARÃES, SN, PROX À CASA DO CAMINHO - ZONA URBANA","SUSSUARANA VELHA",41213000,2,"Avenida Ulysses Guimarães",5000,Salvador,41213000,Sussuarana,google_maps,-12.9331777,-38.4463247,-1,2,1,0.21794871794872
397,38490141775,BA,38490,SALVADOR,14,1775,"ESCOLA MUNICIPAL VINTE E DOIS DE ABRIL","RUA BAHIA SN - ZONA URBANA","TANCREDO NEVES",41210000,5,"Rua Bahia",,Salvador,41211,"Tancredo Neves",google_maps,-12.9486501,-38.4475615,3770.337246298,1,3,0.23076923076923
398,38490151040,BA,38490,SALVADOR,15,1040,"COLÉGIO ESTADUAL NELSON MANDELA","RUA DOUTOR ALMEIDA, 1 - ZONA URBANA",PERIPERI,40720070,28,"Rua Doutor Almeida",1,Salvador,40720070,Periperi,google_maps,-12.8670912,-38.4719818,2079.2172331426,1,2,0.4390243902439
